[{"id":"11","store_number":"10","vendor_number":"610503","psp":"KURT F BOYD","lat":"25.762563","lng":"-80.309631","address":"8341 W FLAGLER ST","address2":null,"city":"MIAMI","state":"FL","postal":"33144","phone":"(305) 266-0713","web":null,"hours1":null,"hours2":null,"hours3":null,"featured":null,"features":null,"date":null},{"id":"12","store_number":"24","vendor_number":"610503","psp":"KURT F BOYD","lat":"25.661502","lng":"-80.441031","address":"10201 HAMMOCKS BLVD, STE 111","address2":null,"city":"MIAMI","state":"FL","postal":"33196","phone":"(305) 382-3002","web":null,"hours1":null,"hours2":null,"hours3":null,"featured":null,"features":null,"date":null},{"id":"13","store_number":"44","vendor_number":"610503","psp":"KURT F BOYD","lat":"25.7392","lng":"-80.31032","address":"7805 SW 40TH ST","address2":null,"city":"MIAMI","state":"FL","postal":"33155","phone":"(305) 266-1950","web":null,"hours1":null,"hours2":null,"hours3":null,"featured":null,"features":null,"date":null},{"id":"14","store_number":"69","vendor_number":"610503","psp":"KURT F BOYD","lat":"25.669437","lng":"-80.408501","address":"13820 SW 88TH ST","address2":null,"city":"MIAMI","state":"FL","postal":"33186","phone":"(305) 385-0200","web":null,"hours1":null,"hours2":null,"hours3":null,"featured":null,"features":null,"date":null},{"id":"15","store_number":"204","vendor_number":"610503","psp":"KURT F BOYD","lat":"25.734314746386","lng":"-80.358810793162","address":"11495 BIRD ROAD","address2":null,"city":"MIAMI","state":"FL","postal":"33165","phone":"(305) 221-8600","web":null,"hours1":null,"hours2":null,"hours3":null,"featured":null,"features":null,"date":null},{"id":"16","store_number":"222","vendor_number":"610503","psp":"KURT F BOYD","lat":"25.734058362898","lng":"-80.406764408211","address":"13890 SW 56TH ST","address2":null,"city":"MIAMI","state":"FL","postal":"33175","phone":"(305) 387-3100","web":null,"hours1":null,"hours2":null,"hours3":null,"featured":null,"features":null,"date":null},{"id":"17","store_number":"223","vendor_number":"610503","psp":"KURT F BOYD","lat":"25.657449","lng":"-80.362667","address":"14601 S DIXIE HWY","address2":null,"city":"MIAMI","state":"FL","postal":"33176","phone":"(305) 255-8005","web":null,"hours1":null,"hours2":null,"hours3":null,"featured":null,"features":null,"date":null},{"id":"18","store_number":"238","vendor_number":"610503","psp":"KURT F BOYD","lat":"25.734058362898","lng":"-80.406764408211","address":"14630 SW 26TH ST","address2":null,"city":"MIAMI","state":"FL","postal":"33175","phone":"(305) 223-0332","web":null,"hours1":null,"hours2":null,"hours3":null,"featured":null,"features":null,"date":null},{"id":"19","store_number":"261","vendor_number":"610503","psp":"KURT F BOYD","lat":"25.699977","lng":"-80.412969","address":"8250 MILLS DR","address2":null,"city":"MIAMI","state":"FL","postal":"33183","phone":"(305) 274-2420","web":null,"hours1":null,"hours2":null,"hours3":null,"featured":null,"features":null,"date":null},{"id":"20","store_number":"293","vendor_number":"610503","psp":"KURT F BOYD","lat":"25.596772346079","lng":"-80.404593594001","address":"13735 SW 152ND ST ","address2":null,"city":"MIAMI","state":"FL","postal":"33177","phone":"(305) 251-9889","web":null,"hours1":null,"hours2":null,"hours3":null,"featured":null,"features":null,"date":null},{"id":"21","store_number":"327","vendor_number":"610503","psp":"KURT F BOYD","lat":"25.757382","lng":"-80.402997","address":"13850 SW 8TH ST","address2":null,"city":"MIAMI","state":"FL","postal":"33184","phone":"(305) 221-1924","web":null,"hours1":null,"hours2":null,"hours3":null,"featured":null,"features":null,"date":null},{"id":"22","store_number":"375","vendor_number":"610503","psp":"KURT F BOYD","lat":"25.762779","lng":"-80.361128","address":"1525 SW 107TH AVE","address2":null,"city":"MIAMI","state":"FL","postal":"33174","phone":"(305) 552-8733","web":null,"hours1":null,"hours2":null,"hours3":null,"featured":null,"features":null,"date":null},{"id":"23","store_number":"478","vendor_number":"610503","psp":"KURT F BOYD","lat":"25.573026474742","lng":"-80.337402602843","address":"20711 S DIXIE HWY","address2":null,"city":"MIAMI","state":"FL","postal":"33189","phone":"(305) 256-3140","web":null,"hours1":null,"hours2":null,"hours3":null,"featured":null,"features":null,"date":null},{"id":"24","store_number":"529","vendor_number":"610503","psp":"KURT F BOYD","lat":"25.696365","lng":"-80.440087","address":"15750 SW 72ND ST","address2":null,"city":"MIAMI","state":"FL","postal":"33193","phone":"(305) 383-6990","web":null,"hours1":null,"hours2":null,"hours3":null,"featured":null,"features":null,"date":null},{"id":"25","store_number":"550","vendor_number":"610503","psp":"KURT F BOYD","lat":"25.657449","lng":"-80.362667","address":"9041 SW 107TH AVE","address2":null,"city":"MIAMI","state":"FL","postal":"33176","phone":"(305) 273-2185","web":null,"hours1":null,"hours2":null,"hours3":null,"featured":null,"features":null,"date":null},{"id":"26","store_number":"588","vendor_number":"610503","psp":"KURT F BOYD","lat":"25.727386751047","lng":"-80.449690232235","address":"4260 SW 152ND AVE","address2":null,"city":"MIAMI","state":"FL","postal":"33185","phone":"(305) 222-8120","web":null,"hours1":null,"hours2":null,"hours3":null,"featured":null,"features":null,"date":null},{"id":"27","store_number":"657","vendor_number":"610503","psp":"KURT F BOYD","lat":"25.661502","lng":"-80.441031","address":"16800 SW 88TH ST","address2":null,"city":"MIAMI","state":"FL","postal":"33196","phone":"(305) 382-5551","web":null,"hours1":null,"hours2":null,"hours3":null,"featured":null,"features":null,"date":null},{"id":"28","store_number":"658","vendor_number":"610503","psp":"KURT F BOYD","lat":"25.668192344093","lng":"-80.29728219193","address":"9105 S DADELAND BLVD","address2":null,"city":"MIAMI","state":"FL","postal":"33156","phone":"(305) 670-8929","web":null,"hours1":null,"hours2":null,"hours3":null,"featured":null,"features":null,"date":null},{"id":"29","store_number":"835","vendor_number":"610503","psp":"KURT F BOYD","lat":"25.669437","lng":"-80.408501","address":"12100 SW 127TH AVE","address2":null,"city":"MIAMI","state":"FL","postal":"33186","phone":"(305) 238-1019","web":null,"hours1":null,"hours2":null,"hours3":null,"featured":null,"features":null,"date":null},{"id":"30","store_number":"889","vendor_number":"610503","psp":"KURT F BOYD","lat":"25.727386751047","lng":"-80.449690232235","address":"15755 SW 56TH ST","address2":null,"city":"MIAMI","state":"FL","postal":"33185","phone":"(305) 207-0481","web":null,"hours1":null,"hours2":null,"hours3":null,"featured":null,"features":null,"date":null},{"id":"31","store_number":"1062","vendor_number":"610503","psp":"KURT F BOYD","lat":"25.596003631743","lng":"-80.507048249474","address":"15771 SW 152ND ST","address2":null,"city":"MIAMI","state":"FL","postal":"33187","phone":"(305) 971-2630","web":null,"hours1":null,"hours2":null,"hours3":null,"featured":null,"features":null,"date":null},{"id":"32","store_number":"1108","vendor_number":"610503","psp":"KURT F BOYD","lat":"25.596772346079","lng":"-80.404593594001","address":"20201 SW 127TH AVE","address2":null,"city":"MIAMI","state":"FL","postal":"33177","phone":"(305) 234-6038","web":null,"hours1":null,"hours2":null,"hours3":null,"featured":null,"features":null,"date":null},{"id":"33","store_number":"1151","vendor_number":"610503","psp":"KURT F BOYD","lat":"25.7392","lng":"-80.31032","address":"8680 SW 24TH ST","address2":null,"city":"MIAMI","state":"FL","postal":"33155","phone":"(305) 559-8030","web":null,"hours1":null,"hours2":null,"hours3":null,"featured":null,"features":null,"date":null},{"id":"34","store_number":"1230","vendor_number":"610503","psp":"KURT F BOYD","lat":"25.766391","lng":"-80.231746","address":"121 SW 22ND AVE","address2":null,"city":"MIAMI","state":"FL","postal":"33135","phone":"(305) 541-3265","web":null,"hours1":null,"hours2":null,"hours3":null,"featured":null,"features":null,"date":null},{"id":"35","store_number":"1273","vendor_number":"610503","psp":"KURT F BOYD","lat":"25.596003631743","lng":"-80.507048249474","address":"18280 SW 147TH AVE","address2":null,"city":"MIAMI","state":"FL","postal":"33187","phone":"(305) 256-3102","web":null,"hours1":null,"hours2":null,"hours3":null,"featured":null,"features":null,"date":null},{"id":"36","store_number":"1397","vendor_number":"610503","psp":"KURT F BOYD","lat":"25.786712","lng":"-80.179996","address":"1776 BISCAYNE BVLD","address2":null,"city":"MIAMI","state":"FL","postal":"33132","phone":"(305) 358-3433","web":null,"hours1":null,"hours2":null,"hours3":null,"featured":null,"features":null,"date":null},{"id":"37","store_number":"1429","vendor_number":"610503","psp":"KURT F BOYD","lat":"25.734314746386","lng":"-80.358810793162","address":"9420 SW 56TH ST","address2":null,"city":"MIAMI","state":"FL","postal":"33165","phone":"(305) 595-4502","web":null,"hours1":null,"hours2":null,"hours3":null,"featured":null,"features":null,"date":null},{"id":"38","store_number":"1467","vendor_number":"610503","psp":"KURT F BOYD","lat":"25.762779","lng":"-80.361128","address":"9951 W FLAGLER ST","address2":null,"city":"MIAMI","state":"FL","postal":"33174","phone":"(305) 207-2329","web":null,"hours1":null,"hours2":null,"hours3":null,"featured":null,"features":null,"date":null},{"id":"39","store_number":"188","vendor_number":"610503","psp":"STEVE DIEGO","lat":"25.938841","lng":"-80.316545","address":"8601 NW 186TH ST","address2":null,"city":"HIALEAH","state":"FL","postal":"33015","phone":"(305) 829-0423","web":null,"hours1":null,"hours2":null,"hours3":null,"featured":null,"features":null,"date":null},{"id":"40","store_number":"262","vendor_number":"610503","psp":"STEVE DIEGO","lat":"25.938841","lng":"-80.316545","address":"18496 NW 67TH AVE","address2":null,"city":"HIALEAH","state":"FL","postal":"33015","phone":"(305) 822-4636","web":null,"hours1":null,"hours2":null,"hours3":null,"featured":null,"features":null,"date":null},{"id":"41","store_number":"343","vendor_number":"610503","psp":"KURT F BOYD","lat":"25.880262","lng":"-80.33681","address":"2414 W 60TH ST","address2":null,"city":"HIALEAH","state":"FL","postal":"33016","phone":"(305) 557-0566","web":null,"hours1":null,"hours2":null,"hours3":null,"featured":null,"features":null,"date":null},{"id":"42","store_number":"586","vendor_number":"610503","psp":"KURT F BOYD","lat":"25.909809","lng":"-80.388874","address":"3339 W 80TH ST ","address2":null,"city":"HIALEAH","state":"FL","postal":"33018","phone":"(305) 819-2600","web":null,"hours1":null,"hours2":null,"hours3":null,"featured":null,"features":null,"date":null},{"id":"43","store_number":"832","vendor_number":"610503","psp":"KURT F BOYD","lat":"25.865395","lng":"-80.3059","address":"1585 W 49TH ST","address2":null,"city":"HIALEAH","state":"FL","postal":"33012","phone":"(305) 238-1019","web":null,"hours1":null,"hours2":null,"hours3":null,"featured":null,"features":null,"date":null},{"id":"44","store_number":"1264","vendor_number":"610503","psp":"KURT F BOYD","lat":"25.859351","lng":"-80.272533","address":"3251 E 2ND AVE","address2":null,"city":"HIALEAH","state":"FL","postal":"33013","phone":"(305) 888-1033","web":null,"hours1":null,"hours2":null,"hours3":null,"featured":null,"features":null,"date":null},{"id":"45","store_number":"1386","vendor_number":"610503","psp":"KURT F BOYD","lat":"25.896349","lng":"-80.306255","address":"1290 W 68TH ST","address2":null,"city":"HIALEAH","state":"FL","postal":"33014","phone":"(305) 820-8885","web":null,"hours1":null,"hours2":null,"hours3":null,"featured":null,"features":null,"date":null},{"id":"46","store_number":"510","vendor_number":"610503","psp":"KURT F BOYD","lat":"25.476639","lng":"-80.483853","address":"891 N HOMESTEAD BLVD","address2":null,"city":"HOMESTEAD","state":"FL","postal":"33030","phone":"(305) 242-1500","web":null,"hours1":null,"hours2":null,"hours3":null,"featured":null,"features":null,"date":null},{"id":"47","store_number":"1029","vendor_number":"610503","psp":"KURT F BOYD","lat":"25.490576","lng":"-80.438014","address":"3060 NE 41ST TER","address2":null,"city":"HOMESTEAD","state":"FL","postal":"33033","phone":"(305) 242-0954","web":null,"hours1":null,"hours2":null,"hours3":null,"featured":null,"features":null,"date":null},{"id":"48","store_number":"1136","vendor_number":"610503","psp":"KURT F BOYD","lat":"25.490576","lng":"-80.438014","address":"2950 NE 8TH ST","address2":null,"city":"HOMESTEAD","state":"FL","postal":"33033","phone":"(305) 242-2679","web":null,"hours1":null,"hours2":null,"hours3":null,"featured":null,"features":null,"date":null},{"id":"49","store_number":"1247","vendor_number":"610503","psp":"KURT F BOYD","lat":"25.530252850411","lng":"-80.391813045498","address":"23300 SW 112TH AVE","address2":null,"city":"HOMESTEAD","state":"FL","postal":"33032","phone":"(305) 257-4090","web":null,"hours1":null,"hours2":null,"hours3":null,"featured":null,"features":null,"date":null},{"id":"50","store_number":"80","vendor_number":"610503","psp":"STEVE DIEGO","lat":"25.92862","lng":"-80.182969","address":"850 N MIAMI BEACH BLVD","address2":null,"city":"N MIAMI BEACH","state":"FL","postal":"33162","phone":"(305) 945-7426","web":null,"hours1":null,"hours2":null,"hours3":null,"featured":null,"features":null,"date":null},{"id":"51","store_number":"629","vendor_number":"610503","psp":"STEVE DIEGO","lat":"25.944083","lng":"-80.21436","address":"19955 NW 2ND AVE","address2":null,"city":"N MIAMI BEACH","state":"FL","postal":"33169","phone":"(305) 654-5771","web":null,"hours1":null,"hours2":null,"hours3":null,"featured":null,"features":null,"date":null},{"id":"52","store_number":"669","vendor_number":"610503","psp":"STEVE DIEGO","lat":"25.957095","lng":"-80.181382","address":"1700 NE MIAMI GARDENS DR","address2":null,"city":"N MIAMI BEACH","state":"FL","postal":"33179","phone":"(305)945-7119","web":null,"hours1":null,"hours2":null,"hours3":null,"featured":null,"features":null,"date":null},{"id":"53","store_number":"621","vendor_number":"610503","psp":"KURT F BOYD","lat":"25.787326","lng":"-80.156368","address":"1920 WEST AVE, ","address2":null,"city":"MIAMI BEACH","state":"FL","postal":"33139","phone":"(305)525-4268","web":null,"hours1":null,"hours2":null,"hours3":null,"featured":null,"features":null,"date":null},{"id":"54","store_number":"1209","vendor_number":"610503","psp":"KURT F BOYD","lat":"25.787326","lng":"-80.156368","address":"1100 6TH ST","address2":null,"city":"MIAMI BEACH","state":"FL","postal":"33139","phone":"(305) 525-2212","web":null,"hours1":null,"hours2":null,"hours3":null,"featured":null,"features":null,"date":null},{"id":"55","store_number":"1382","vendor_number":"610503","psp":"STEVE DIEGO","lat":"25.848623","lng":"-80.144617","address":"6876 COLLINS AVE","address2":null,"city":"MIAMI BEACH","state":"FL","postal":"33141","phone":"(305) 864-7405","web":null,"hours1":null,"hours2":null,"hours3":null,"featured":null,"features":null,"date":null},{"id":"56","store_number":"31","vendor_number":"610503","psp":"KURT F BOYD","lat":"25.814079","lng":"-80.354925","address":"NW 41ST ST, DORAL","address2":null,"city":"DORAL","state":"FL","postal":"33178","phone":"(305) 591-2145","web":null,"hours1":null,"hours2":null,"hours3":null,"featured":null,"features":null,"date":null},{"id":"57","store_number":"655","vendor_number":"610503","psp":"KURT F BOYD","lat":"25.814079","lng":"-80.354925","address":"10755 NE 58TH ST","address2":null,"city":"DORAL","state":"FL","postal":"33178","phone":"(305) 597-8295","web":null,"hours1":null,"hours2":null,"hours3":null,"featured":null,"features":null,"date":null},{"id":"58","store_number":"1492","vendor_number":"610503","psp":"KURT F BOYD","lat":"25.814079","lng":"-80.354925","address":"7550 NW 104TH AVE","address2":null,"city":"DORAL","state":"FL","postal":"33178","phone":"(305) 418-9751","web":null,"hours1":null,"hours2":null,"hours3":null,"featured":null,"features":null,"date":null},{"id":"59","store_number":"1003","vendor_number":"610503","psp":"STEVE DIEGO","lat":"25.893422","lng":"-80.175768","address":"12855 NE 6TH AVE","address2":null,"city":"N MIAMI ","state":"FL","postal":"33161","phone":"(305) 891-1024","web":null,"hours1":null,"hours2":null,"hours3":null,"featured":null,"features":null,"date":null},{"id":"60","store_number":"1017","vendor_number":"610503","psp":"STEVE DIEGO","lat":"25.896522","lng":"-80.156988","address":"14641 BISCYANE BLVD","address2":null,"city":"N MIAMI","state":"FL","postal":"33181","phone":"(305) 354-2171","web":null,"hours1":null,"hours2":null,"hours3":null,"featured":null,"features":null,"date":null},{"id":"61","store_number":"260","vendor_number":"610503","psp":"KURT F BOYD","lat":"25.606182141232","lng":"-80.342628159023","address":"18485 S DIXIE HWY","address2":null,"city":"CUTLER BAY","state":"FL","postal":"33157","phone":"(305) 253-7946","web":null,"hours1":null,"hours2":null,"hours3":null,"featured":null,"features":null,"date":null},{"id":"62","store_number":"328","vendor_number":"610503","psp":"KURT F BOYD","lat":"25.573026474742","lng":"-80.337402602843","address":"20425 OLD CUTLER RD","address2":null,"city":"CUTLER BAY","state":"FL","postal":"33189","phone":"(305) 235-2214","web":null,"hours1":null,"hours2":null,"hours3":null,"featured":null,"features":null,"date":null},{"id":"63","store_number":"454","vendor_number":"610503","psp":"STEVE DIEGO","lat":"25.959719","lng":"-80.140267","address":"18995 DISCAYNE BLVD","address2":null,"city":"AVENTURA","state":"FL","postal":"33180","phone":"(305) 931-3761","web":null,"hours1":null,"hours2":null,"hours3":null,"featured":null,"features":null,"date":null},{"id":"64","store_number":"1494","vendor_number":"610503","psp":"KURT F BOYD","lat":"25.762563","lng":"-80.309631","address":"1500 SW 57TH AVE","address2":null,"city":"WEST MIAMI","state":"FL","postal":"33144","phone":"(305) 265-8019","web":null,"hours1":null,"hours2":null,"hours3":null,"featured":null,"features":null,"date":null},{"id":"65","store_number":"794","vendor_number":"610503","psp":"STEVE DIEGO","lat":"25.852073","lng":"-80.182118","address":"9050 BISCAYNE BLVD","address2":null,"city":"MIAMI SHORES","state":"FL","postal":"33138","phone":"(305) 751-4075","web":null,"hours1":null,"hours2":null,"hours3":null,"featured":null,"features":null,"date":null},{"id":"66","store_number":"1129","vendor_number":"610503","psp":"STEVE DIEGO","lat":"25.896349","lng":"-80.306255","address":"15000 MIAMI LAKES DR E","address2":null,"city":"MIAMI LAKES","state":"FL","postal":"33014","phone":"(305) 818-8830","web":null,"hours1":null,"hours2":null,"hours3":null,"featured":null,"features":null,"date":null},{"id":"67","store_number":"1288","vendor_number":"610503","psp":"KURT F BOYD","lat":"25.766391","lng":"-80.231746","address":"106 PONCE DE LEON BLVD","address2":null,"city":"CORAL GABLES","state":"FL","postal":"33135","phone":"(305) 442-6018","web":null,"hours1":null,"hours2":null,"hours3":null,"featured":null,"features":null,"date":null},{"id":"68","store_number":"1423","vendor_number":"610503","psp":"KURT F BOYD","lat":"25.668192344093","lng":"-80.29728219193","address":"13401 S DIXIE HWY","address2":null,"city":"PINCECREST","state":"FL","postal":"33156","phone":"(305) 251-0911","web":null,"hours1":null,"hours2":null,"hours3":null,"featured":null,"features":null,"date":null},{"id":"69","store_number":"500","vendor_number":"610503","psp":"KURT F BOYD","lat":"24.55524","lng":"-81.78163","address":"3316 N ROOSEVELT BLVD","address2":null,"city":"KEY WEST","state":"FL","postal":"33040","phone":"(305) 296-2225","web":null,"hours1":null,"hours2":null,"hours3":null,"featured":null,"features":null,"date":null},{"id":"70","store_number":"1445","vendor_number":"610503","psp":"KURT F BOYD","lat":"24.55524","lng":"-81.78163","address":"1112 KEY PLAZA","address2":null,"city":"KEY WEST","state":"FL","postal":"33040","phone":"(305) 295-8045","web":null,"hours1":null,"hours2":null,"hours3":null,"featured":null,"features":null,"date":null},{"id":"71","store_number":"376","vendor_number":"610503","psp":"KURT F BOYD","lat":"25.0865151","lng":"-80.4472802","address":"101437 OVERSEAS HWY","address2":null,"city":"KEY LARGO","state":"FL","postal":"33037","phone":"(305) 451-0808","web":null,"hours1":null,"hours2":null,"hours3":null,"featured":null,"features":null,"date":null},{"id":"72","store_number":"575","vendor_number":"610503","psp":"KURT F BOYD","lat":"24.727919","lng":"-81.038581","address":"5407 OVERSEAS HWY","address2":null,"city":"MARATHON","state":"FL","postal":"33050","phone":"(305) 289-2920","web":null,"hours1":null,"hours2":null,"hours3":null,"featured":null,"features":null,"date":null},{"id":"73","store_number":"70","vendor_number":"610503","psp":"JOHN HARTOG","lat":"26.165612","lng":"-80.111766","address":"3400 N FEDERAL HWY","address2":null,"city":"FORT LAUDERDALE","state":"FL","postal":"33306","phone":"(954) 564-9612","web":null,"hours1":null,"hours2":null,"hours3":null,"featured":null,"features":null,"date":null},{"id":"74","store_number":"619","vendor_number":"610503","psp":"STEVE DIEGO","lat":"26.048032","lng":"-80.374894","address":"15801 SHERIDAN ST","address2":null,"city":"FORT LAUDERDALE","state":"FL","postal":"33331","phone":"(954) 442-6869","web":null,"hours1":null,"hours2":null,"hours3":null,"featured":null,"features":null,"date":null},{"id":"75","store_number":"743","vendor_number":"610503","psp":"STEVE DIEGO","lat":"26.059583","lng":"-80.414605","address":"19441 SHERIDAN ST","address2":null,"city":"FORT LAUDERDALE","state":"FL","postal":"33332","phone":"(954) 434-1668","web":null,"hours1":null,"hours2":null,"hours3":null,"featured":null,"features":null,"date":null},{"id":"76","store_number":"850","vendor_number":"610503","psp":"STEVE DIEGO","lat":"26.121561","lng":"-80.128778","address":"601 S ANDREWS AVE","address2":null,"city":"FORT LAUDERDALE","state":"FL","postal":"33301","phone":"(954) 728-8330","web":null,"hours1":null,"hours2":null,"hours3":null,"featured":null,"features":null,"date":null},{"id":"77","store_number":"1094","vendor_number":"610503","psp":"STEVE DIEGO","lat":"26.138733371126","lng":"-80.121788636208","address":"1415 E SUNRISE BLVD","address2":null,"city":"FORT LAUDERDALE","state":"FL","postal":"33304","phone":"(954) 888-8915","web":null,"hours1":null,"hours2":null,"hours3":null,"featured":null,"features":null,"date":null},{"id":"78","store_number":"1097","vendor_number":"610503","psp":"STEVE DIEGO","lat":"26.104193","lng":"-80.125951","address":"1940 CORDOVA RD","address2":null,"city":"FORT LAUDERDALE","state":"FL","postal":"33316","phone":"(954) 847-2844","web":null,"hours1":null,"hours2":null,"hours3":null,"featured":null,"features":null,"date":null},{"id":"79","store_number":"1124","vendor_number":"610503","psp":"STEVE DIEGO","lat":"26.096819","lng":"-80.181038","address":"3500 DAVIE BLVD","address2":null,"city":"FORT LAUDERDALE","state":"FL","postal":"33312","phone":"(954) 791-2180","web":null,"hours1":null,"hours2":null,"hours3":null,"featured":null,"features":null,"date":null},{"id":"80","store_number":"317","vendor_number":"610503","psp":"JOHN HARTOG","lat":"26.303307","lng":"-80.241539","address":"8160 WILES RD","address2":null,"city":"CORAL SPRINGS","state":"FL","postal":"33067","phone":"(954) 753-3307","web":null,"hours1":null,"hours2":null,"hours3":null,"featured":null,"features":null,"date":null},{"id":"81","store_number":"373","vendor_number":"610503","psp":"JOHN HARTOG","lat":"26.243515","lng":"-80.260085","address":"1305 N UNIVERSITY DRIVE","address2":null,"city":"CORAL SPRINGS","state":"FL","postal":"33071","phone":"(954) 755-6425","web":null,"hours1":null,"hours2":null,"hours3":null,"featured":null,"features":null,"date":null},{"id":"82","store_number":"549","vendor_number":"610503","psp":"JOHN HARTOG","lat":"26.243515","lng":"-80.260085","address":"1400 CORAL RIDGE DR","address2":null,"city":"CORAL SPRINGS","state":"FL","postal":"33071","phone":"(954) 346-1705","web":null,"hours1":null,"hours2":null,"hours3":null,"featured":null,"features":null,"date":null},{"id":"83","store_number":"568","vendor_number":"610503","psp":"JOHN HARTOG","lat":"26.316811281131","lng":"-80.275299543767","address":"10701 WILES RD","address2":null,"city":"CORAL SPRINGS","state":"FL","postal":"33076","phone":"(954) 796-2090","web":null,"hours1":null,"hours2":null,"hours3":null,"featured":null,"features":null,"date":null},{"id":"84","store_number":"678","vendor_number":"610503","psp":"JOHN HARTOG","lat":"26.316811281131","lng":"-80.275299543767","address":"5950 CORAL RIDGE DR","address2":null,"city":"CORAL SPRINGS","state":"FL","postal":"33076","phone":"(954) 757-4405","web":null,"hours1":null,"hours2":null,"hours3":null,"featured":null,"features":null,"date":null},{"id":"85","store_number":"1114","vendor_number":"610503","psp":"JOHN HARTOG","lat":"26.272897839065","lng":"-80.260325190811","address":"11600 W SAMPLE RD","address2":null,"city":"CORAL SPRINGS","state":"FL","postal":"33065","phone":"(954) 509-5288","web":null,"hours1":null,"hours2":null,"hours3":null,"featured":null,"features":null,"date":null},{"id":"86","store_number":"1121","vendor_number":"610503","psp":"JOHN HARTOG","lat":"26.303307","lng":"-80.241539","address":"6270 W SAMPLE RD","address2":null,"city":"CORAL SPRINGS","state":"FL","postal":"33067","phone":"(954) 344-5560","web":null,"hours1":null,"hours2":null,"hours3":null,"featured":null,"features":null,"date":null},{"id":"87","store_number":"1311","vendor_number":"610503","psp":"JOHN HARTOG","lat":"26.243515","lng":"-80.260085","address":"2201 N UNIVERSITY DR","address2":null,"city":"CORAL SPRINGS","state":"FL","postal":"33071","phone":"(954)757-2296","web":null,"hours1":null,"hours2":null,"hours3":null,"featured":null,"features":null,"date":null},{"id":"88","store_number":"53","vendor_number":"610503","psp":"STEVE DIEGO","lat":"26.021836","lng":"-80.189085","address":"5211 SHERIDAN ST","address2":null,"city":"HOLLYWOOD","state":"FL","postal":"33021","phone":"(954) 987-6331","web":null,"hours1":null,"hours2":null,"hours3":null,"featured":null,"features":null,"date":null},{"id":"89","store_number":"432","vendor_number":"610503","psp":"STEVE DIEGO","lat":"26.021836","lng":"-80.189085","address":"3251 HOLLYWOOD BLVD","address2":null,"city":"HOLLYWOOD","state":"FL","postal":"33021","phone":"(954) 964-5004","web":null,"hours1":null,"hours2":null,"hours3":null,"featured":null,"features":null,"date":null},{"id":"90","store_number":"679","vendor_number":"610503","psp":"STEVE DIEGO","lat":"26.029582","lng":"-80.248916","address":"6901 TAFT ST","address2":null,"city":"HOLLYWOOD","state":"FL","postal":"33024","phone":"(954)961-1770","web":null,"hours1":null,"hours2":null,"hours3":null,"featured":null,"features":null,"date":null},{"id":"91","store_number":"820","vendor_number":"610503","psp":"STEVE DIEGO","lat":"26.029582","lng":"-80.248916","address":"9359 SHERIDAN ST","address2":null,"city":"HOLLYWOOD","state":"FL","postal":"33024","phone":"(954) 433-2262","web":null,"hours1":null,"hours2":null,"hours3":null,"featured":null,"features":null,"date":null},{"id":"92","store_number":"1454","vendor_number":"610503","psp":"STEVE DIEGO","lat":"26.016091","lng":"-80.15166","address":"1700 SHERIDAN ST","address2":null,"city":"HOLLYWOOD","state":"FL","postal":"33020","phone":"(954) 927-5680","web":null,"hours1":null,"hours2":null,"hours3":null,"featured":null,"features":null,"date":null},{"id":"93","store_number":"342","vendor_number":"610503","psp":"STEVE DIEGO","lat":"26.125463","lng":"-80.264371","address":"10065 CLEARLY BLVD","address2":null,"city":"PLANTATION","state":"FL","postal":"33324","phone":"(954) 473-4000","web":null,"hours1":null,"hours2":null,"hours3":null,"featured":null,"features":null,"date":null},{"id":"94","store_number":"645","vendor_number":"610503","psp":"STEVE DIEGO","lat":"26.150203872298","lng":"-80.274502891465","address":"8101 W SUNRISE BLVD","address2":null,"city":"PLANTATION","state":"FL","postal":"33322","phone":"(954) 452-1362","web":null,"hours1":null,"hours2":null,"hours3":null,"featured":null,"features":null,"date":null},{"id":"95","store_number":"703","vendor_number":"610503","psp":"STEVE DIEGO","lat":"26.112174806442","lng":"-80.22641441678","address":"6921 W BROWARD BLVD","address2":null,"city":"PLANTATION","state":"FL","postal":"33317","phone":"(954) 327-9705","web":null,"hours1":null,"hours2":null,"hours3":null,"featured":null,"features":null,"date":null},{"id":"96","store_number":"747","vendor_number":"610503","psp":"STEVE DIEGO","lat":"26.109746465743","lng":"-80.321508502649","address":"225 S FLAMINGO RD","address2":null,"city":"PLANTATION","state":"FL","postal":"33325","phone":"(954) 472-5110","web":null,"hours1":null,"hours2":null,"hours3":null,"featured":null,"features":null,"date":null},{"id":"97","store_number":"1345","vendor_number":"610503","psp":"STEVE DIEGO","lat":"26.125463","lng":"-80.264371","address":"1182 S UNIVERSITY DR","address2":null,"city":"PLANTATION","state":"FL","postal":"33324","phone":"(954) 577-0542","web":null,"hours1":null,"hours2":null,"hours3":null,"featured":null,"features":null,"date":null},{"id":"98","store_number":"21","vendor_number":"610503","psp":"STEVE DIEGO","lat":"26.116834816273","lng":"-80.415608007874","address":"2465 GLADES CIR","address2":null,"city":"WESTON","state":"FL","postal":"33327","phone":"(954) 217-0022","web":null,"hours1":null,"hours2":null,"hours3":null,"featured":null,"features":null,"date":null},{"id":"99","store_number":"583","vendor_number":"610503","psp":"STEVE DIEGO","lat":"26.115841817952","lng":"-80.368064169537","address":"294 INDIAN TRACE","address2":null,"city":"WESTON","state":"FL","postal":"33326","phone":"(954) 384-4190","web":null,"hours1":null,"hours2":null,"hours3":null,"featured":null,"features":null,"date":null},{"id":"100","store_number":"759","vendor_number":"610503","psp":"STEVE DIEGO","lat":"26.115841817952","lng":"-80.368064169537","address":"1601 PROMENADE BLVD","address2":null,"city":"WESTON","state":"FL","postal":"33326","phone":"(954) 660-0322","web":null,"hours1":null,"hours2":null,"hours3":null,"featured":null,"features":null,"date":null},{"id":"101","store_number":"1079","vendor_number":"610503","psp":"STEVE DIEGO","lat":"26.048032","lng":"-80.374894","address":"1940 CORDOVA RD","address2":null,"city":"WESTON","state":"FL","postal":"33331","phone":"(954) 847-2844","web":null,"hours1":null,"hours2":null,"hours3":null,"featured":null,"features":null,"date":null},{"id":"102","store_number":"1469","vendor_number":"610503","psp":"STEVE DIEGO","lat":"26.115841817952","lng":"-80.368064169537","address":"1170 WESTON RD","address2":null,"city":"WESTON","state":"FL","postal":"33326","phone":"(954) 385-3013","web":null,"hours1":null,"hours2":null,"hours3":null,"featured":null,"features":null,"date":null},{"id":"103","store_number":"368","vendor_number":"610503","psp":"STEVE DIEGO","lat":"25.992061","lng":"-80.271236","address":"9951 MIRAMAR PKWY","address2":null,"city":"MIRAMAR","state":"FL","postal":"33025","phone":"(954) 437-6124","web":null,"hours1":null,"hours2":null,"hours3":null,"featured":null,"features":null,"date":null},{"id":"104","store_number":"652","vendor_number":"610503","psp":"STEVE DIEGO","lat":"25.992061","lng":"-80.271236","address":"11000 PEMBROKE RD","address2":null,"city":"MIRAMAR","state":"FL","postal":"33025","phone":"(954) 441-7918","web":null,"hours1":null,"hours2":null,"hours3":null,"featured":null,"features":null,"date":null},{"id":"105","store_number":"673","vendor_number":"610503","psp":"STEVE DIEGO","lat":"25.997449","lng":"-80.32484","address":"14375 MIRAMAR PKWY","address2":null,"city":"MIRAMAR","state":"FL","postal":"33027","phone":"(954) 447-9212","web":null,"hours1":null,"hours2":null,"hours3":null,"featured":null,"features":null,"date":null},{"id":"106","store_number":"674","vendor_number":"610503","psp":"STEVE DIEGO","lat":"25.992366558753","lng":"-80.408856984446","address":"18409 MIRAMAR PKWY","address2":null,"city":"MIRAMAR","state":"FL","postal":"33029","phone":"(954)447-3334","web":null,"hours1":null,"hours2":null,"hours3":null,"featured":null,"features":null,"date":null},{"id":"107","store_number":"252","vendor_number":"610503","psp":"STEVE DIEGO","lat":"26.125463","lng":"-80.264371","address":"8842 W STATE ROAD 84","address2":null,"city":"DAVIE","state":"FL","postal":"33324","phone":"(954) 472-4511","web":null,"hours1":null,"hours2":null,"hours3":null,"featured":null,"features":null,"date":null},{"id":"108","store_number":"372","vendor_number":"610503","psp":"STEVE DIEGO","lat":"26.109746465743","lng":"-80.321508502649","address":"13700 W STATE RD 84 ","address2":null,"city":"DAVIE","state":"FL","postal":"33325","phone":"(954) 472-0018","web":null,"hours1":null,"hours2":null,"hours3":null,"featured":null,"features":null,"date":null},{"id":"109","store_number":"396","vendor_number":"610503","psp":"STEVE DIEGO","lat":"26.066316","lng":"-80.333872","address":"4901 SW 148TH AVE","address2":null,"city":"DAVIE","state":"FL","postal":"33330","phone":"(954) 680-1900","web":null,"hours1":null,"hours2":null,"hours3":null,"featured":null,"features":null,"date":null},{"id":"110","store_number":"871","vendor_number":"610503","psp":"STEVE DIEGO","lat":"26.069666","lng":"-80.224569","address":"5997 STIRLING RD","address2":null,"city":"DAVIE","state":"FL","postal":"33314","phone":"(954) 581-4393","web":null,"hours1":null,"hours2":null,"hours3":null,"featured":null,"features":null,"date":null},{"id":"111","store_number":"406","vendor_number":"610503","psp":"JOHN HARTOG","lat":"26.299693","lng":"-80.180966","address":"6570 N STATE ROAD 7","address2":null,"city":"COCONUT CREEK","state":"FL","postal":"33073","phone":"(954) 425-0400","web":null,"hours1":null,"hours2":null,"hours3":null,"featured":null,"features":null,"date":null},{"id":"112","store_number":"637","vendor_number":"610503","psp":"JOHN HARTOG","lat":"26.299693","lng":"-80.180966","address":"5365 LYONS RD","address2":null,"city":"COCONUT CREEK","state":"FL","postal":"33073","phone":"(954) 427-0563","web":null,"hours1":null,"hours2":null,"hours3":null,"featured":null,"features":null,"date":null},{"id":"113","store_number":"805","vendor_number":"610503","psp":"JOHN HARTOG","lat":"26.267436","lng":"-80.209176","address":"4849 COCONUT CREEK PKWY","address2":null,"city":"COCONUT CREEK","state":"FL","postal":"33063","phone":"(954) 975-2490","web":null,"hours1":null,"hours2":null,"hours3":null,"featured":null,"features":null,"date":null},{"id":"114","store_number":"872","vendor_number":"610503","psp":"JOHN HARTOG","lat":"26.299693","lng":"-80.180966","address":"4760 W HILLSBORO BLVD","address2":null,"city":"COCONUT CREEK","state":"FL","postal":"33073","phone":"(954) 422-5485","web":null,"hours1":null,"hours2":null,"hours3":null,"featured":null,"features":null,"date":null},{"id":"115","store_number":"303","vendor_number":"610503","psp":"STEVE DIEGO","lat":"25.997449","lng":"-80.32484","address":"170 S FLAMINGO RD","address2":null,"city":"PEMBROKE PINES","state":"FL","postal":"33027","phone":"(954) 437-9500","web":null,"hours1":null,"hours2":null,"hours3":null,"featured":null,"features":null,"date":null},{"id":"116","store_number":"528","vendor_number":"610503","psp":"STEVE DIEGO","lat":"25.992366558753","lng":"-80.408856984446","address":"18341 PINES BLVD","address2":null,"city":"PEMBROKE PINES","state":"FL","postal":"33029","phone":"(954) 430-6100","web":null,"hours1":null,"hours2":null,"hours3":null,"featured":null,"features":null,"date":null},{"id":"117","store_number":"1068","vendor_number":"610503","psp":"STEVE DIEGO","lat":"25.997449","lng":"-80.32484","address":"15729 PINES BLVD","address2":null,"city":"PEMBROKE PINES","state":"FL","postal":"33027","phone":"(954) 431-2094","web":null,"hours1":null,"hours2":null,"hours3":null,"featured":null,"features":null,"date":null},{"id":"118","store_number":"239","vendor_number":"610503","psp":"STEVE DIEGO","lat":"26.179295673975","lng":"-80.274591820674","address":"10155 W OAKLAND PARK BLVD","address2":null,"city":"SUNRISE","state":"FL","postal":"33351","phone":"(954) 748-5300","web":null,"hours1":null,"hours2":null,"hours3":null,"featured":null,"features":null,"date":null},{"id":"119","store_number":"509","vendor_number":"610503","psp":"STEVE DIEGO","lat":"26.152016615688","lng":"-80.316517825955","address":"12500 W SUNRISE BLVD","address2":null,"city":"SUNRISE","state":"FL","postal":"33323","phone":"(954) 851-1000","web":null,"hours1":null,"hours2":null,"hours3":null,"featured":null,"features":null,"date":null},{"id":"120","store_number":"777","vendor_number":"610503","psp":"STEVE DIEGO","lat":"26.179295673975","lng":"-80.274591820674","address":"9300 W COMMERCIAL BLVD","address2":null,"city":"SUNRISE","state":"FL","postal":"33351","phone":"(954) 748-0418","web":null,"hours1":null,"hours2":null,"hours3":null,"featured":null,"features":null,"date":null},{"id":"121","store_number":"242","vendor_number":"610503","psp":"JOHN HARTOG","lat":"26.212046500027","lng":"-80.26962934406","address":"8245 NW 88TH AVE","address2":null,"city":"TAMARAC","state":"FL","postal":"33321","phone":"(954) 726-1990","web":null,"hours1":null,"hours2":null,"hours3":null,"featured":null,"features":null,"date":null},{"id":"122","store_number":"302","vendor_number":"610503","psp":"STEVE DIEGO","lat":"26.212046500027","lng":"-80.26962934406","address":"5881 N UNIVERSITY DRIVE","address2":null,"city":"TAMARAC","state":"FL","postal":"33321","phone":"(954) 721-7800","web":null,"hours1":null,"hours2":null,"hours3":null,"featured":null,"features":null,"date":null},{"id":"123","store_number":"787","vendor_number":"610503","psp":"STEVE DIEGO","lat":"26.184761","lng":"-80.24057","address":"4121 COMMERCIAL BLVD","address2":null,"city":"TAMARAC","state":"FL","postal":"33319","phone":"(954) 735-4808","web":null,"hours1":null,"hours2":null,"hours3":null,"featured":null,"features":null,"date":null},{"id":"124","store_number":"246","vendor_number":"610503","psp":"JOHN HARTOG","lat":"26.312365","lng":"-80.141242","address":"1337 S MILITARY TRL","address2":null,"city":"DEERFIELD BEACH","state":"FL","postal":"33442","phone":"(954) 427-5828","web":null,"hours1":null,"hours2":null,"hours3":null,"featured":null,"features":null,"date":null},{"id":"125","store_number":"348","vendor_number":"610503","psp":"JOHN HARTOG","lat":"26.312365","lng":"-80.141242","address":"3740 W HILLSBORO BLVD","address2":null,"city":"DEERFIELD BEACH","state":"FL","postal":"33442","phone":"(954) 481-2266","web":null,"hours1":null,"hours2":null,"hours3":null,"featured":null,"features":null,"date":null},{"id":"126","store_number":"861","vendor_number":"610503","psp":"JOHN HARTOG","lat":"26.309556","lng":"-80.099173","address":"150 S FEDERAL HWY","address2":null,"city":"DEERFIELD BEACH","state":"FL","postal":"33441","phone":"(954) 427-5537","web":null,"hours1":null,"hours2":null,"hours3":null,"featured":null,"features":null,"date":null},{"id":"127","store_number":"1301","vendor_number":"610503","psp":"STEVE DIEGO","lat":"26.067106203917","lng":"-80.272311577164","address":"10018 GRIFFIN RD","address2":null,"city":"COOPER CITY","state":"FL","postal":"33328","phone":"(954) 434-5728","web":null,"hours1":null,"hours2":null,"hours3":null,"featured":null,"features":null,"date":null},{"id":"128","store_number":"1526","vendor_number":"610503","psp":"N\/A","lat":"26.066316","lng":"-80.333872","address":"5656 S FLAMINGO RD","address2":null,"city":"COOPER CITY","state":"FL","postal":"33330","phone":"(954) 434-8240","web":null,"hours1":null,"hours2":null,"hours3":null,"featured":null,"features":null,"date":null},{"id":"129","store_number":"693","vendor_number":"610503","psp":"JOHN HARTOG","lat":"26.231529","lng":"-80.12346","address":"411 S CYPRESS RD","address2":null,"city":"POMPANO BEACH","state":"FL","postal":"33060","phone":"(954) 784-3277","web":null,"hours1":null,"hours2":null,"hours3":null,"featured":null,"features":null,"date":null},{"id":"130","store_number":"1393","vendor_number":"610503","psp":"JOHN HARTOG","lat":"26.234314","lng":"-80.094133","address":"2511 E ATLANTIC BLVD","address2":null,"city":"POMPANO BEACH","state":"FL","postal":"33062","phone":"(954) 786-7964","web":null,"hours1":null,"hours2":null,"hours3":null,"featured":null,"features":null,"date":null},{"id":"131","store_number":"294","vendor_number":"610503","psp":"JOHN HARTOG","lat":"26.216021","lng":"-80.22054","address":"1297 S STATE ROAD 7","address2":null,"city":"NORTH LAUDERDALE","state":"FL","postal":"33068","phone":"(954) 973-3337","web":null,"hours1":null,"hours2":null,"hours3":null,"featured":null,"features":null,"date":null},{"id":"132","store_number":"822","vendor_number":"610503","psp":"JOHN HARTOG","lat":"26.216021","lng":"-80.22054","address":"8140 W MCNAB RD","address2":null,"city":"NORTH LAUDERDALE","state":"FL","postal":"33068","phone":"(954) 722-0599","web":null,"hours1":null,"hours2":null,"hours3":null,"featured":null,"features":null,"date":null},{"id":"133","store_number":"56","vendor_number":"610503","psp":"JOHN HARTOG","lat":"26.278493895291","lng":"-80.115662966263","address":"3700 N FEDERAL HWY","address2":null,"city":"LIGHTHOUSE POINT","state":"FL","postal":"33064","phone":"(954) 786-3056","web":null,"hours1":null,"hours2":null,"hours3":null,"featured":null,"features":null,"date":null},{"id":"134","store_number":"114","vendor_number":"610503","psp":"JOHN HARTOG","lat":"26.142104","lng":"-80.172786","address":"100 W OAKLAND PARK BLVD","address2":null,"city":"WILTON MANORS","state":"FL","postal":"33311","phone":"(954) 565-4891","web":null,"hours1":null,"hours2":null,"hours3":null,"featured":null,"features":null,"date":null},{"id":"135","store_number":"402","vendor_number":"610503","psp":"STEVE DIEGO","lat":"25.985019","lng":"-80.140737","address":"1400 E HALLANDALE BEACH BLVD","address2":null,"city":"HALLANDALE BEACH","state":"FL","postal":"33009","phone":"(954) 454-6440","web":null,"hours1":null,"hours2":null,"hours3":null,"featured":null,"features":null,"date":null},{"id":"136","store_number":"750","vendor_number":"610503","psp":"JOHN HARTOG","lat":"26.184511","lng":"-80.134366","address":"1003 E COMMERCIAL BLVD","address2":null,"city":"OAKLAND PARK","state":"FL","postal":"33334","phone":"(954) 491-9330","web":null,"hours1":null,"hours2":null,"hours3":null,"featured":null,"features":null,"date":null},{"id":"137","store_number":"788","vendor_number":"610503","psp":"STEVE DIEGO","lat":"","lng":"","address":"402 E DANIA BEACH BLVD","address2":null,"city":"DANIA BEACH","state":"FL","postal":"33003","phone":"(954) 920-4289","web":null,"hours1":null,"hours2":null,"hours3":null,"featured":null,"features":null,"date":null},{"id":"138","store_number":"1109","vendor_number":"610503","psp":"STEVE DIEGO","lat":"26.148662","lng":"-80.207519","address":"5855 W OAKLAND PARK BLVD, STE 203","address2":null,"city":"LAUDERHILL","state":"FL","postal":"33313","phone":"(954) 735-1328","web":null,"hours1":null,"hours2":null,"hours3":null,"featured":null,"features":null,"date":null},{"id":"139","store_number":"1137","vendor_number":"610503","psp":"JOHN HARTOG","lat":"26.303307","lng":"-80.241539","address":"8095 N UNIVERSITY DR","address2":null,"city":"PARKLAND","state":"FL","postal":"33067","phone":"(954) 575-8225","web":null,"hours1":null,"hours2":null,"hours3":null,"featured":null,"features":null,"date":null},{"id":"140","store_number":"126","vendor_number":"610503","psp":"ROBERT CANINI","lat":"26.402975","lng":"-80.181287","address":"9720 CLINT MOORE RD","address2":null,"city":"BOCA RATON","state":"FL","postal":"33496","phone":"(561) 218-6114","web":null,"hours1":null,"hours2":null,"hours3":null,"featured":null,"features":null,"date":null},{"id":"141","store_number":"324","vendor_number":"610503","psp":"ROBERT CANINI","lat":"26.344605","lng":"-80.210942","address":"22973 STATE ROAD 7","address2":null,"city":"BOCA RATON","state":"FL","postal":"33428","phone":"(561) 488-5994","web":null,"hours1":null,"hours2":null,"hours3":null,"featured":null,"features":null,"date":null},{"id":"142","store_number":"339","vendor_number":"610503","psp":"ROBERT CANINI","lat":"26.402975","lng":"-80.181287","address":"5050 CHAMPION BLVD","address2":null,"city":"BOCA RATON","state":"FL","postal":"33496","phone":"(561) 994-8350","web":null,"hours1":null,"hours2":null,"hours3":null,"featured":null,"features":null,"date":null},{"id":"143","store_number":"369","vendor_number":"610503","psp":"ROBERT CANINI","lat":"26.411642","lng":"-80.09277","address":"7431 N FEDERAL HWY","address2":null,"city":"BOCA RATON","state":"FL","postal":"33487","phone":"(561) 241-9700","web":null,"hours1":null,"hours2":null,"hours3":null,"featured":null,"features":null,"date":null},{"id":"144","store_number":"421","vendor_number":"610503","psp":"ROBERT CANINI","lat":"26.383909","lng":"-80.174858","address":"9846 GLADES RD","address2":null,"city":"BOCA RATON","state":"FL","postal":"33434","phone":"(561) 852-5580","web":null,"hours1":null,"hours2":null,"hours3":null,"featured":null,"features":null,"date":null},{"id":"145","store_number":"428","vendor_number":"610503","psp":"ROBERT CANINI","lat":"26.383909","lng":"-80.174858","address":"3003 YAMATO RD STE C9","address2":null,"city":"BOCA RATON","state":"FL","postal":"33434","phone":"(561) 241-5005","web":null,"hours1":null,"hours2":null,"hours3":null,"featured":null,"features":null,"date":null},{"id":"146","store_number":"600","vendor_number":"610503","psp":"JOHN HARTOG","lat":"26.34619","lng":"-80.084421","address":"1001 S FEDERAL HWY","address2":null,"city":"BOCA RATON","state":"FL","postal":"33432","phone":"(561) 417-2445","web":null,"hours1":null,"hours2":null,"hours3":null,"featured":null,"features":null,"date":null},{"id":"147","store_number":"606","vendor_number":"610503","psp":"JOHN HARTOG","lat":"26.344605","lng":"-80.210942","address":"W PALMETTO PARK RD","address2":null,"city":"BOCA RATON","state":"FL","postal":"33428","phone":"(561) 470-9370","web":null,"hours1":null,"hours2":null,"hours3":null,"featured":null,"features":null,"date":null},{"id":"148","store_number":"1159","vendor_number":"610503","psp":"ROBERT CANINI","lat":"26.346409","lng":"-80.156399","address":"21230 SAINT ANDREWS BLVD","address2":null,"city":"BOCA RATON","state":"FL","postal":"33433","phone":"(561) 544-2422","web":null,"hours1":null,"hours2":null,"hours3":null,"featured":null,"features":null,"date":null},{"id":"149","store_number":"1361","vendor_number":"610503","psp":"JOHN HARTOG","lat":"26.3184123","lng":"-80.0997657","address":"7060 W PALMETTO PARK RD","address2":null,"city":"BOCA RATON","state":"FL","postal":"33443","phone":"(561) 338-0648","web":null,"hours1":null,"hours2":null,"hours3":null,"featured":null,"features":null,"date":null},{"id":"150","store_number":"1459","vendor_number":"610503","psp":"ROBERT CANINI","lat":"26.379929","lng":"-80.097488","address":"1968 NE 5TH AVE","address2":null,"city":"BOCA RATON","state":"FL","postal":"33431","phone":"(561) 750-9476","web":null,"hours1":null,"hours2":null,"hours3":null,"featured":null,"features":null,"date":null},{"id":"151","store_number":"250","vendor_number":"610503","psp":"ROBERT CANINI","lat":"26.535402","lng":"-80.112447","address":"W WOOLBRIGHT RD","address2":null,"city":"BOYNTON BEACH","state":"FL","postal":"33436","phone":"(561) 734-4401","web":null,"hours1":null,"hours2":null,"hours3":null,"featured":null,"features":null,"date":null},{"id":"152","store_number":"397","vendor_number":"610503","psp":"ROBERT CANINI","lat":"26.535402","lng":"-80.112447","address":"4966 LE CHALET BLVD","address2":null,"city":"BOYNTON BEACH","state":"FL","postal":"33436","phone":"(561) 369-3500","web":null,"hours1":null,"hours2":null,"hours3":null,"featured":null,"features":null,"date":null},{"id":"153","store_number":"484","vendor_number":"610503","psp":"ROBERT CANINI","lat":"26.531187","lng":"-80.141812","address":"6627 BOYNTON BEACH BLVD","address2":null,"city":"BOYNTON BEACH","state":"FL","postal":"33437","phone":"(561) 731-2065","web":null,"hours1":null,"hours2":null,"hours3":null,"featured":null,"features":null,"date":null},{"id":"154","store_number":"1041","vendor_number":"610503","psp":"ROBERT CANINI","lat":"26.51747","lng":"-80.083427","address":"1005 GATEWAY BLVD","address2":null,"city":"BOYNTON BEACH","state":"FL","postal":"33426","phone":"(561) 732-6148","web":null,"hours1":null,"hours2":null,"hours3":null,"featured":null,"features":null,"date":null},{"id":"155","store_number":"1067","vendor_number":"610503","psp":"ROBERT CANINI","lat":"26.531187","lng":"-80.141812","address":"12425 HAGEN RANCH RD","address2":null,"city":"BOYNTON BEACH","state":"FL","postal":"33437","phone":"(561) 292-4489","web":null,"hours1":null,"hours2":null,"hours3":null,"featured":null,"features":null,"date":null},{"id":"156","store_number":"1221","vendor_number":"610503","psp":"ROBERT CANINI","lat":"26.538410735658","lng":"-80.18559861453","address":"8780 BOYNTON BEACH BLVD","address2":null,"city":"BOYNTON BEACH","state":"FL","postal":"33472","phone":"(561) 369-4800","web":null,"hours1":null,"hours2":null,"hours3":null,"featured":null,"features":null,"date":null},{"id":"157","store_number":"1246","vendor_number":"610503","psp":"ROBERT CANINI","lat":"26.531187","lng":"-80.141812","address":"10935 S JOG RD","address2":null,"city":"BOYNTON BEACH","state":"FL","postal":"33437","phone":"(561) 731-2900","web":null,"hours1":null,"hours2":null,"hours3":null,"featured":null,"features":null,"date":null},{"id":"158","store_number":"1405","vendor_number":"610503","psp":"ROBERT CANINI","lat":"26.525414798086","lng":"-80.061009849073","address":"501 SE 18TH AVE","address2":null,"city":"BOYNTON BEACH","state":"FL","postal":"33435","phone":"(561) 292-4080","web":null,"hours1":null,"hours2":null,"hours3":null,"featured":null,"features":null,"date":null},{"id":"159","store_number":"1424","vendor_number":"610503","psp":"ROBERT CANINI","lat":"26.51747","lng":"-80.083427","address":"4770 N CONGRESS AVE","address2":null,"city":"BOYNTON BEACH","state":"FL","postal":"33426","phone":"(561) 868-5530","web":null,"hours1":null,"hours2":null,"hours3":null,"featured":null,"features":null,"date":null},{"id":"160","store_number":"1452","vendor_number":"610503","psp":"ROBERT CANINI","lat":"26.51747","lng":"-80.083427","address":"133 N CONGRESS AVE","address2":null,"city":"BOYNTON BEACH","state":"FL","postal":"33426","phone":"(561) 364-3707","web":null,"hours1":null,"hours2":null,"hours3":null,"featured":null,"features":null,"date":null},{"id":"161","store_number":"50","vendor_number":"610503","psp":"ROBERT CANINI","lat":"26.669968","lng":"-80.058234","address":"828 SOUTHERN BLVD","address2":null,"city":"WEST PALM BEACH","state":"FL","postal":"33405","phone":"(561) 832-1661","web":null,"hours1":null,"hours2":null,"hours3":null,"featured":null,"features":null,"date":null},{"id":"162","store_number":"371","vendor_number":"610503","psp":"ROBERT CANINI","lat":"26.716211802547","lng":"-80.096477632521","address":"2895 N MILITARY TRL","address2":null,"city":"WEST PALM BEACH","state":"FL","postal":"33409","phone":"(561) 687-0445","web":null,"hours1":null,"hours2":null,"hours3":null,"featured":null,"features":null,"date":null},{"id":"163","store_number":"651","vendor_number":"610503","psp":"ROBERT CANINI","lat":"26.805526","lng":"-80.248203","address":"10130 NORTHLAKE BLVD","address2":null,"city":"WEST PALM BEACH","state":"FL","postal":"33412","phone":"(561) 799-6802","web":null,"hours1":null,"hours2":null,"hours3":null,"featured":null,"features":null,"date":null},{"id":"164","store_number":"653","vendor_number":"610503","psp":"ROBERT CANINI","lat":"26.664443","lng":"-80.174116","address":"8989 OKEECHOBEE BLVD","address2":null,"city":"WEST PALM BEACH","state":"FL","postal":"33411","phone":"(561) 792-2113","web":null,"hours1":null,"hours2":null,"hours3":null,"featured":null,"features":null,"date":null},{"id":"165","store_number":"821","vendor_number":"610503","psp":"ROBERT CANINI","lat":"26.719741912145","lng":"-80.124832863159","address":"4075 N HAVERHILL RD","address2":null,"city":"WEST PALM BEACH","state":"FL","postal":"33417","phone":"(561) 683-0412","web":null,"hours1":null,"hours2":null,"hours3":null,"featured":null,"features":null,"date":null},{"id":"166","store_number":"894","vendor_number":"610503","psp":"ROBERT CANINI","lat":"26.664443","lng":"-80.174116","address":"6820 OKEECHOBEE BLVD","address2":null,"city":"WEST PALM BEACH","state":"FL","postal":"33411","phone":"(561) 684-3015","web":null,"hours1":null,"hours2":null,"hours3":null,"featured":null,"features":null,"date":null},{"id":"167","store_number":"1104","vendor_number":"610503","psp":"ROBERT CANINI","lat":"26.656044","lng":"-80.125952","address":"926 S MILITARY TRL","address2":null,"city":"WEST PALM BEACH","state":"FL","postal":"33415","phone":"(561) 616-2563","web":null,"hours1":null,"hours2":null,"hours3":null,"featured":null,"features":null,"date":null},{"id":"168","store_number":"1497","vendor_number":"610503","psp":"ROBERT CANINI","lat":"26.716211802547","lng":"-80.096477632521","address":"831 VILLAGE BLVD","address2":null,"city":"WEST PALM BEACH","state":"FL","postal":"33409","phone":"(561) 615-6808","web":null,"hours1":null,"hours2":null,"hours3":null,"featured":null,"features":null,"date":null},{"id":"169","store_number":"228","vendor_number":"610503","psp":"CHARLES RUSSELL","lat":"26.933938","lng":"-80.120091","address":"W INDIANTOWN RD","address2":null,"city":"JUPITER","state":"FL","postal":"33458","phone":"(561) 741-1220","web":null,"hours1":null,"hours2":null,"hours3":null,"featured":null,"features":null,"date":null},{"id":"170","store_number":"313","vendor_number":"610503","psp":"ROBERT CANINI","lat":"","lng":"","address":"4060 S US HWY","address2":null,"city":"JUPITER","state":"FL","postal":"33447","phone":"(561) 694-2662","web":null,"hours1":null,"hours2":null,"hours3":null,"featured":null,"features":null,"date":null},{"id":"171","store_number":"401","vendor_number":"610503","psp":"CHARLES RUSSELL","lat":"26.921701","lng":"-80.077034","address":"95 S US HWY 1","address2":null,"city":"JUPITER","state":"FL","postal":"33477","phone":"(561) 743-7400","web":null,"hours1":null,"hours2":null,"hours3":null,"featured":null,"features":null,"date":null},{"id":"172","store_number":"638","vendor_number":"610503","psp":"CHARLES RUSSELL","lat":"26.921242","lng":"-80.214388","address":"10142 W INDIANTOWN RD","address2":null,"city":"JUPITER","state":"FL","postal":"33478","phone":"(561) 748-5812","web":null,"hours1":null,"hours2":null,"hours3":null,"featured":null,"features":null,"date":null},{"id":"173","store_number":"756","vendor_number":"610503","psp":"ROBERT CANINI","lat":"26.933938","lng":"-80.120091","address":"5500 MILITARY TRL STE 25","address2":null,"city":"JUPITER","state":"FL","postal":"33458","phone":"(561) 799-3181","web":null,"hours1":null,"hours2":null,"hours3":null,"featured":null,"features":null,"date":null},{"id":"174","store_number":"1050","vendor_number":"610503","psp":"CHARLES RUSSELL","lat":"26.933938","lng":"-80.120091","address":"123 HONEYBELL WAY","address2":null,"city":"JUPITER","state":"FL","postal":"33458","phone":"(561) 748-5100","web":null,"hours1":null,"hours2":null,"hours3":null,"featured":null,"features":null,"date":null},{"id":"175","store_number":"1333","vendor_number":"610503","psp":"CHARLES RUSSELL","lat":"26.921701","lng":"-80.077034","address":"17400 N ALTERNATE A1A","address2":null,"city":"JUPITER","state":"FL","postal":"33477","phone":"(561) 741-6060","web":null,"hours1":null,"hours2":null,"hours3":null,"featured":null,"features":null,"date":null},{"id":"176","store_number":"179","vendor_number":"610503","psp":"ROBERT CANINI","lat":"26.828854","lng":"-80.060334","address":"11566 US HWY","address2":null,"city":"PALM BEACH GARDENS","state":"FL","postal":"33408","phone":"(561) 622-0804","web":null,"hours1":null,"hours2":null,"hours3":null,"featured":null,"features":null,"date":null},{"id":"177","store_number":"212","vendor_number":"610503","psp":"ROBERT CANINI","lat":"26.8233946","lng":"-80.1386547","address":"N MILITARY TRL","address2":null,"city":"PALM BEACH GARDENS","state":"FL","postal":"33410","phone":"(561) 622-3584","web":null,"hours1":null,"hours2":null,"hours3":null,"featured":null,"features":null,"date":null},{"id":"178","store_number":"434","vendor_number":"610503","psp":"ROBERT CANINI","lat":"26.8233946","lng":"-80.1386547","address":"4200 NORTHLAKE BLVD","address2":null,"city":"PALM BEACH GARDENS","state":"FL","postal":"33410","phone":"(561) 625-9631","web":null,"hours1":null,"hours2":null,"hours3":null,"featured":null,"features":null,"date":null},{"id":"179","store_number":"1006","vendor_number":"610503","psp":"ROBERT CANINI","lat":"26.8233946","lng":"-80.1386547","address":"6251 PGA BLVD","address2":null,"city":"PALM BEACH GARDENS","state":"FL","postal":"33418","phone":"(561) 622-1764","web":null,"hours1":null,"hours2":null,"hours3":null,"featured":null,"features":null,"date":null},{"id":"180","store_number":"1157","vendor_number":"610503","psp":"ROBERT CANINI","lat":"26.8233946","lng":"-80.1386547","address":"11231 LEGACY AVE","address2":null,"city":"PALM BEACH GARDENS","state":"FL","postal":"33410","phone":"(561) 514-5175","web":null,"hours1":null,"hours2":null,"hours3":null,"featured":null,"features":null,"date":null},{"id":"181","store_number":"1368","vendor_number":"610503","psp":"ROBERT CANINI","lat":"26.8233946","lng":"-80.1386547","address":"4101 HOOD RD","address2":null,"city":"PALM BEACH GARDENS","state":"FL","postal":"33410","phone":"(561) 622-1047","web":null,"hours1":null,"hours2":null,"hours3":null,"featured":null,"features":null,"date":null},{"id":"182","store_number":"181","vendor_number":"610503","psp":"ROBERT CANINI","lat":"","lng":"","address":"S FEDERAL HWY","address2":null,"city":"DELRAY BEACH","state":"FL","postal":"33485","phone":"(561) 272-1291","web":null,"hours1":null,"hours2":null,"hours3":null,"featured":null,"features":null,"date":null},{"id":"183","store_number":"195","vendor_number":"610503","psp":"ROBERT CANINI","lat":"26.456359","lng":"-80.105397","address":"W ATLANTIC AVE","address2":null,"city":"DELRAY BEACH","state":"FL","postal":"33445","phone":"(561) 498-0500","web":null,"hours1":null,"hours2":null,"hours3":null,"featured":null,"features":null,"date":null},{"id":"184","store_number":"279","vendor_number":"610503","psp":"ROBERT CANINI","lat":"26.451717","lng":"-80.158016","address":"13860 JOG RD","address2":null,"city":" DELRAY BEACH","state":"FL","postal":"33446","phone":"(561) 498-2229","web":null,"hours1":null,"hours2":null,"hours3":null,"featured":null,"features":null,"date":null},{"id":"185","store_number":"388","vendor_number":"610503","psp":"ROBERT CANINI","lat":"26.451717","lng":"-80.158016","address":"7375 W ATLANTIC AVE","address2":null,"city":"DELRAY BEACH","state":"FL","postal":"33446","phone":"(561) 498-2221","web":null,"hours1":null,"hours2":null,"hours3":null,"featured":null,"features":null,"date":null},{"id":"186","store_number":"1018","vendor_number":"610503","psp":"ROBERT CANINI","lat":"26.451717","lng":"-80.158016","address":"16130 JOG RD","address2":null,"city":"DELRAY BEACH","state":"FL","postal":"33446","phone":"(561) 495-1367","web":null,"hours1":null,"hours2":null,"hours3":null,"featured":null,"features":null,"date":null},{"id":"187","store_number":"1274","vendor_number":"610503","psp":"ROBERT CANINI","lat":"26.451717","lng":"-80.158016","address":"9239 W ATLANTIC AVE","address2":null,"city":"DELRAY BEACH","state":"FL","postal":"33446","phone":"(561) 498-1285","web":null,"hours1":null,"hours2":null,"hours3":null,"featured":null,"features":null,"date":null},{"id":"188","store_number":"180","vendor_number":"610503","psp":"ROBERT CANINI","lat":"26.610366","lng":"-80.168299","address":"7745 LAKE WORTH RD","address2":null,"city":"LAKE WORTH","state":"FL","postal":"33467","phone":"(561) 969-2880","web":null,"hours1":null,"hours2":null,"hours3":null,"featured":null,"features":null,"date":null},{"id":"189","store_number":"184","vendor_number":"610503","psp":"ROBERT CANINI","lat":"26.610366","lng":"-80.168299","address":"8899 HYPOLUXO RD","address2":null,"city":"LAKE WORTH","state":"FL","postal":"33467","phone":"(561) 304-0697","web":null,"hours1":null,"hours2":null,"hours3":null,"featured":null,"features":null,"date":null},{"id":"190","store_number":"413","vendor_number":"610503","psp":"ROBERT CANINI","lat":"26.610366","lng":"-80.168299","address":"9855 LAKE WORTH RD","address2":null,"city":"LAKE WORTH","state":"FL","postal":"33467","phone":"(561) 966-9111","web":null,"hours1":null,"hours2":null,"hours3":null,"featured":null,"features":null,"date":null},{"id":"191","store_number":"1144","vendor_number":"610503","psp":"ROBERT CANINI","lat":"26.610366","lng":"-80.168299","address":"5970 S JOG RD","address2":null,"city":"LAKE WORTH","state":"FL","postal":"33467","phone":"(561) 649-7409","web":null,"hours1":null,"hours2":null,"hours3":null,"featured":null,"features":null,"date":null},{"id":"192","store_number":"394","vendor_number":"610503","psp":"ROBERT CANINI","lat":"26.6586779","lng":"-80.2414357","address":"13880 WELLINGTON TRCE","address2":null,"city":"WELLINGTON","state":"FL","postal":"33414","phone":"(561) 795-8555","web":null,"hours1":null,"hours2":null,"hours3":null,"featured":null,"features":null,"date":null},{"id":"193","store_number":"1107","vendor_number":"610503","psp":"ROBERT CANINI","lat":"26.6586779","lng":"-80.2414357","address":"11950 FOREST HILL BLVD","address2":null,"city":"WELLINGTON","state":"FL","postal":"33414","phone":"(561) 422-9640","web":null,"hours1":null,"hours2":null,"hours3":null,"featured":null,"features":null,"date":null},{"id":"194","store_number":"851","vendor_number":"610503","psp":"ROBERT CANINI","lat":"26.738295","lng":"-80.276007","address":"7050 SEMINOLE PRATT WHITNEY RD","address2":null,"city":"LOXAHATCHEE","state":"FL","postal":"33470","phone":"(561) 383-6177","web":null,"hours1":null,"hours2":null,"hours3":null,"featured":null,"features":null,"date":null},{"id":"195","store_number":"1538","vendor_number":"610503","psp":"ROBERT CANINI","lat":"26.738295","lng":"-80.276007","address":"15625 SOUTHERN BLVD","address2":null,"city":"LOXAHATCHEE","state":"FL","postal":"33470","phone":"(561) 795-5201","web":null,"hours1":null,"hours2":null,"hours3":null,"featured":null,"features":null,"date":null},{"id":"196","store_number":"620","vendor_number":"610503","psp":"ROBERT CANINI","lat":"26.664443","lng":"-80.174116","address":"11977 SOUTHERN BLVD","address2":null,"city":"ROYAL PALM BEACH","state":"FL","postal":"33411","phone":"(561) 792-2100","web":null,"hours1":null,"hours2":null,"hours3":null,"featured":null,"features":null,"date":null},{"id":"197","store_number":"1046","vendor_number":"610503","psp":"ROBERT CANINI","lat":"26.6586779","lng":"-80.2414357","address":"127 S STATE RD 7","address2":null,"city":"ROYAL PALM BEACH","state":"FL","postal":"33414","phone":"(561) 615-1705","web":null,"hours1":null,"hours2":null,"hours3":null,"featured":null,"features":null,"date":null},{"id":"198","store_number":"23","vendor_number":"610503","psp":"ROBERT CANINI","lat":"26.655494","lng":"-80.159616","address":"6790 FOREST HILL BLVD","address2":null,"city":"GREENACRES","state":"FL","postal":"33413","phone":"(561) 641-4500","web":null,"hours1":null,"hours2":null,"hours3":null,"featured":null,"features":null,"date":null},{"id":"199","store_number":"895","vendor_number":"610503","psp":"ROBERT CANINI","lat":"26.595537","lng":"-80.129065","address":"4849 S MILITARY TRL","address2":null,"city":"GREENACRES","state":"FL","postal":"33463","phone":"(561) 304-2727","web":null,"hours1":null,"hours2":null,"hours3":null,"featured":null,"features":null,"date":null},{"id":"200","store_number":"55","vendor_number":"610503","psp":"ROBERT CANINI","lat":"26.62316","lng":"-80.094573","address":"1700 SOUTH CONGRESS AVE","address2":null,"city":"PALM SPRINGS","state":"FL","postal":"33461","phone":"(561) 965-8700","web":null,"hours1":null,"hours2":null,"hours3":null,"featured":null,"features":null,"date":null},{"id":"201","store_number":"817","vendor_number":"610503","psp":"ROBERT CANINI","lat":"26.574736","lng":"-80.079405","address":"1589 LANTANA RD","address2":null,"city":"LANTANA","state":"FL","postal":"33462","phone":"(561) 585-4225","web":null,"hours1":null,"hours2":null,"hours3":null,"featured":null,"features":null,"date":null},{"id":"202","store_number":"1049","vendor_number":"610503","psp":"ROBERT CANINI","lat":"26.983103907018","lng":"-80.107951189663","address":"500 N US HWY 1","address2":null,"city":"TEQUESTA","state":"FL","postal":"33469","phone":"(561) 741-8147","web":null,"hours1":null,"hours2":null,"hours3":null,"featured":null,"features":null,"date":null},{"id":"203","store_number":"1395","vendor_number":"610503","psp":"ROBERT CANINI","lat":"26.72065","lng":"-80.038825","address":"135 BRADLEY PL","address2":null,"city":"PALM BEACH ","state":"FL","postal":"33480","phone":"(561) 655-4120","web":null,"hours1":null,"hours2":null,"hours3":null,"featured":null,"features":null,"date":null},{"id":"204","store_number":"415","vendor_number":"610503","psp":"JEFFREY SCHLEMMER","lat":"28.084797","lng":"-82.725257","address":"33343 US HWY 19N","address2":null,"city":"PALM HARBOR","state":"FL","postal":"34684","phone":"(727) 789-1920","web":null,"hours1":null,"hours2":null,"hours3":null,"featured":null,"features":null,"date":null},{"id":"205","store_number":"497","vendor_number":"610503","psp":"JEFFREY SCHLEMMER","lat":"28.096725","lng":"-82.696357","address":"36301 E LAKE RD","address2":null,"city":"PALM HARBOR","state":"FL","postal":"34685","phone":"(727) 785-5521","web":null,"hours1":null,"hours2":null,"hours3":null,"featured":null,"features":null,"date":null},{"id":"206","store_number":"1340","vendor_number":"610503","psp":"JEFFREY SCHLEMMER","lat":"28.084797","lng":"-82.725257","address":"35439 US 19N","address2":null,"city":"PALM HARBOR","state":"FL","postal":"34684","phone":"(727) 771-0892","web":null,"hours1":null,"hours2":null,"hours3":null,"featured":null,"features":null,"date":null},{"id":"207","store_number":"1341","vendor_number":"610503","psp":"JEFFREY SCHLEMMER","lat":"28.096725","lng":"-82.696357","address":"500 E LAKE RD","address2":null,"city":"PALM HARBOR","state":"FL","postal":"34685","phone":"(727) 784-4180","web":null,"hours1":null,"hours2":null,"hours3":null,"featured":null,"features":null,"date":null},{"id":"208","store_number":"640","vendor_number":"610503","psp":"DANIEL JUDD","lat":"27.795435","lng":"-82.637289","address":"200 37TH AVE N","address2":null,"city":"SAINT PETERSBURG","state":"FL","postal":"33704","phone":"(727) 895-1670","web":null,"hours1":null,"hours2":null,"hours3":null,"featured":null,"features":null,"date":null},{"id":"209","store_number":"1321","vendor_number":"610503","psp":"DANIEL JUDD","lat":"27.735336","lng":"-82.666298","address":"3030 54TH AVE S ","address2":null,"city":"SAINT PETERSBURG","state":"FL","postal":"33712","phone":"(727) 864-2030","web":null,"hours1":null,"hours2":null,"hours3":null,"featured":null,"features":null,"date":null},{"id":"210","store_number":"1541","vendor_number":"610503","psp":"DANIEL JUDD","lat":"27.74649","lng":"-82.689708","address":"5295 34TH ST S","address2":null,"city":"SAINT PETERSBURG","state":"FL","postal":"33711","phone":"(727) 864-0079","web":null,"hours1":null,"hours2":null,"hours3":null,"featured":null,"features":null,"date":null},{"id":"211","store_number":"1160","vendor_number":"610503","psp":"DANIEL JUDD","lat":"27.916038","lng":"-82.734299","address":"525 S BELCHER RD","address2":null,"city":"CLEARWATER","state":"FL","postal":"33764","phone":"(727) 791-0138","web":null,"hours1":null,"hours2":null,"hours3":null,"featured":null,"features":null,"date":null},{"id":"212","store_number":"1117","vendor_number":"610503","psp":"JEFFREY SCHLEMMER","lat":"28.030956507857","lng":"-82.723940057554","address":"2514 N MCMULLEN BOOTH RD","address2":null,"city":"CLEARWATER","state":"FL","postal":"33761","phone":"(727) 723-0281","web":null,"hours1":null,"hours2":null,"hours3":null,"featured":null,"features":null,"date":null},{"id":"213","store_number":"1300","vendor_number":"610503","psp":"JEFFREY SCHLEMMER","lat":"28.017296","lng":"-82.746082","address":"1921 N BELCHER RD","address2":null,"city":"CLEARWATER","state":"FL","postal":"33763","phone":"(727) 712-3450","web":null,"hours1":null,"hours2":null,"hours3":null,"featured":null,"features":null,"date":null},{"id":"214","store_number":"111","vendor_number":"610503","psp":"DANIEL JUDD","lat":"27.838670598945","lng":"-82.715118029081","address":"7333 PARK BLVD N ","address2":null,"city":"PINELLAS PARK","state":"FL","postal":"33781","phone":"(727) 546-5866","web":null,"hours1":null,"hours2":null,"hours3":null,"featured":null,"features":null,"date":null},{"id":"215","store_number":"1344","vendor_number":"610503","psp":"DANIEL JUDD","lat":"27.838670598945","lng":"-82.715118029081","address":"4701 PARK BLVD","address2":null,"city":"PINELLAS PARK","state":"FL","postal":"33781","phone":"(727) 546-4870","web":null,"hours1":null,"hours2":null,"hours3":null,"featured":null,"features":null,"date":null},{"id":"216","store_number":"95","vendor_number":"610503","psp":"DANIEL JUDD","lat":"27.8688048","lng":"-82.7344179","address":"10801 STARKEY RD STE 200","address2":null,"city":"SEMINOLE","state":"FL","postal":"33777","phone":"(727) 397-4223","web":null,"hours1":null,"hours2":null,"hours3":null,"featured":null,"features":null,"date":null},{"id":"217","store_number":"1309","vendor_number":"610503","psp":"DANIEL JUDD","lat":"27.916998","lng":"-82.802668","address":"2770 W BAY DR","address2":null,"city":"BELLEAIR BLUFFS","state":"FL","postal":"33770","phone":"(727) 586-0213","web":null,"hours1":null,"hours2":null,"hours3":null,"featured":null,"features":null,"date":null},{"id":"218","store_number":"1332","vendor_number":"610503","psp":"JEFFREY SCHLEMMER","lat":"28.364763","lng":"-82.675669","address":"12101 LITTLE ROAD","address2":null,"city":"HUDSON","state":"FL","postal":"34667","phone":"(727) 868-3174","web":null,"hours1":null,"hours2":null,"hours3":null,"featured":null,"features":null,"date":null},{"id":"219","store_number":"1335","vendor_number":"610503","psp":"DANIEL JUDD","lat":"27.908479","lng":"-82.756823","address":"3825 E BAY DR","address2":null,"city":"LARGO","state":"FL","postal":"33771","phone":"(727) 538-8630","web":null,"hours1":null,"hours2":null,"hours3":null,"featured":null,"features":null,"date":null},{"id":"220","store_number":"310","vendor_number":"610505","psp":"JEFFREY SCHLEMMER","lat":"27.891422","lng":"-82.506714","address":"3615 W GANDY BLVD","address2":null,"city":"TAMPA","state":"FL","postal":"33611","phone":"(813) 831-2691","web":null,"hours1":null,"hours2":null,"hours3":null,"featured":null,"features":null,"date":null},{"id":"221","store_number":"584","vendor_number":"610505","psp":"JEFFREY SCHLEMMER","lat":"28.114698","lng":"-82.367751","address":"19034 BRUCE B DOWNS BLVD","address2":null,"city":"TAMPA","state":"FL","postal":"33647","phone":"(813) 631-1911","web":null,"hours1":null,"hours2":null,"hours3":null,"featured":null,"features":null,"date":null},{"id":"222","store_number":"754","vendor_number":"610505","psp":"JEFFREY SCHLEMMER","lat":"26.115841817952","lng":"-80.368064169537","address":"7835 GUNN HWY","address2":null,"city":"TAMPA","state":"FL","postal":"33326","phone":"(813) 926-6664","web":null,"hours1":null,"hours2":null,"hours3":null,"featured":null,"features":null,"date":null},{"id":"223","store_number":"1373","vendor_number":"610505","psp":"JEFFREY SCHLEMMER","lat":"28.114698","lng":"-82.367751","address":"16041 TAMPA PALMS BLVD W","address2":null,"city":"TAMPA","state":"FL","postal":"33647","phone":"(813) 972-2784","web":null,"hours1":null,"hours2":null,"hours3":null,"featured":null,"features":null,"date":null},{"id":"224","store_number":"1506","vendor_number":"610505","psp":"JEFFREY SCHLEMMER","lat":"28.9338","lng":"-81.9914","address":"3838 BRITTON PLAZA","address2":null,"city":"TAMPA","state":"FL","postal":"32163","phone":"(813) 835-1280","web":null,"hours1":null,"hours2":null,"hours3":null,"featured":null,"features":null,"date":null},{"id":"225","store_number":"878","vendor_number":"610505","psp":"RONALD HOUGH","lat":"28.465553","lng":"-81.151009","address":"3461 LITHIA PINECREST RD","address2":null,"city":"VALRICO","state":"FL","postal":"32831","phone":"(813) 661-4283","web":null,"hours1":null,"hours2":null,"hours3":null,"featured":null,"features":null,"date":null},{"id":"226","store_number":"1277","vendor_number":"610505","psp":"RONALD HOUGH","lat":"27.940774660682","lng":"-82.242024990768","address":"1971 E STATE ROAD 60","address2":null,"city":"VALRICO","state":"FL","postal":"33594","phone":"(813) 657-4041","web":null,"hours1":null,"hours2":null,"hours3":null,"featured":null,"features":null,"date":null},{"id":"227","store_number":"6","vendor_number":"610505","psp":"JEFFREY SCHLEMMER","lat":"28.2397301","lng":"-82.3278658","address":"1920 COUNTY RD 581","address2":null,"city":"WESLEY CHAPEL","state":"FL","postal":"33544","phone":"(813) 994-4566","web":null,"hours1":null,"hours2":null,"hours3":null,"featured":null,"features":null,"date":null},{"id":"228","store_number":"311","vendor_number":"610505","psp":"JEFFREY SCHLEMMER","lat":"28.038358","lng":"-82.394876","address":"N 53RD ST","address2":null,"city":"TEMPLE TERRACE","state":"FL","postal":"33617","phone":"(813) 988-1980","web":null,"hours1":null,"hours2":null,"hours3":null,"featured":null,"features":null,"date":null},{"id":"229","store_number":"834","vendor_number":"610505","psp":"JEFFREY SCHLEMMER","lat":"28.136688","lng":"-82.461045","address":"16560 N NEBRASKA AVE","address2":null,"city":"LUTZ","state":"FL","postal":"33549","phone":"(813) 264-5590","web":null,"hours1":null,"hours2":null,"hours3":null,"featured":null,"features":null,"date":null},{"id":"230","store_number":"877","vendor_number":"610505","psp":"JEFFREY SCHLEMMER","lat":"28.225849","lng":"-82.45472","address":"2121 COLLIER PKWY","address2":null,"city":"LAND O LAKES","state":"FL","postal":"34639","phone":"(813) 948-9819","web":null,"hours1":null,"hours2":null,"hours3":null,"featured":null,"features":null,"date":null},{"id":"231","store_number":"890","vendor_number":"610505","psp":"RONALD HOUGH","lat":"27.863280679957","lng":"-82.349931793518","address":"11109 WINTHROP MARKET ST","address2":null,"city":"RIVERVIEW","state":"FL","postal":"33578","phone":"(813) 661-3286","web":null,"hours1":null,"hours2":null,"hours3":null,"featured":null,"features":null,"date":null},{"id":"232","store_number":"1245","vendor_number":"610505","psp":"RONALD HOUGH","lat":"28.231063","lng":"-82.20566","address":"7838 GALL BLVD","address2":null,"city":"ZEPHYRHILLS","state":"FL","postal":"33541","phone":"(813) 783-6871","web":null,"hours1":null,"hours2":null,"hours3":null,"featured":null,"features":null,"date":null},{"id":"233","store_number":"340","vendor_number":"610503","psp":"CHARLES RUSSELL","lat":"27.288895","lng":"-80.297971","address":"9100 S US HWY 1 ","address2":null,"city":"PORT SAINT LUCIE","state":"FL","postal":"34952","phone":"(772) 337-1600","web":null,"hours1":null,"hours2":null,"hours3":null,"featured":null,"features":null,"date":null},{"id":"234","store_number":"423","vendor_number":"610503","psp":"CHARLES RUSSELL","lat":"27.32148","lng":"-80.403045","address":"1333 NW SAINT LUCIE WEST BLVD","address2":null,"city":"PORT SAINT LUCIE","state":"FL","postal":"34986","phone":"(772) 340-7200","web":null,"hours1":null,"hours2":null,"hours3":null,"featured":null,"features":null,"date":null},{"id":"235","store_number":"819","vendor_number":"610503","psp":"CHARLES RUSSELL","lat":"27.309444","lng":"-80.345029","address":"5473 NW SAINT JAMES DR","address2":null,"city":"PORT SAINT LUCIE","state":"FL","postal":"34983","phone":"(772) 878-6119","web":null,"hours1":null,"hours2":null,"hours3":null,"featured":null,"features":null,"date":null},{"id":"236","store_number":"855","vendor_number":"610503","psp":"CHARLES RUSSELL","lat":"27.539097","lng":"-80.405195","address":"7576B S US HWY 1","address2":null,"city":"PORT SAINT LUCIE","state":"FL","postal":"34951","phone":"(772) 336-3833","web":null,"hours1":null,"hours2":null,"hours3":null,"featured":null,"features":null,"date":null},{"id":"237","store_number":"1030","vendor_number":"610503","psp":"CHARLES RUSSELL","lat":"27.260595","lng":"-80.477052","address":"10400 SW VILLAGE CENTER DR","address2":null,"city":"PORT SAINT LUCIE","state":"FL","postal":"34987","phone":"(772) 345-9900","web":null,"hours1":null,"hours2":null,"hours3":null,"featured":null,"features":null,"date":null},{"id":"238","store_number":"1128","vendor_number":"610503","psp":"CHARLES RUSSELL","lat":"27.265476","lng":"-80.338936","address":"788 SE BECKER RD","address2":null,"city":"PORT SAINT LUCIE","state":"FL","postal":"34984","phone":"(772) 336-3182","web":null,"hours1":null,"hours2":null,"hours3":null,"featured":null,"features":null,"date":null},{"id":"239","store_number":"1284","vendor_number":"610503","psp":"CHARLES RUSSELL","lat":"27.262506","lng":"-80.379323","address":"3253 SW PORT ST LUCIE BLVD","address2":null,"city":"PORT SAINT LUCIE","state":"FL","postal":"34953","phone":"(772) 621-8473","web":null,"hours1":null,"hours2":null,"hours3":null,"featured":null,"features":null,"date":null},{"id":"240","store_number":"1378","vendor_number":"610503","psp":"CHARLES RUSSELL","lat":"27.288895","lng":"-80.297971","address":"1125 SE PORT ST LUCIE BLVD","address2":null,"city":"PORT SAINT LUCIE","state":"FL","postal":"34952","phone":"(772) 335-8441","web":null,"hours1":null,"hours2":null,"hours3":null,"featured":null,"features":null,"date":null},{"id":"241","store_number":"1472","vendor_number":"610503","psp":"CHARLES RUSSELL","lat":"27.32148","lng":"-80.403045","address":"9335 SW COMMERCE CENTER DR","address2":null,"city":"PORT SAINT LUCIE","state":"FL","postal":"34986","phone":"(772) 345-9500","web":null,"hours1":null,"hours2":null,"hours3":null,"featured":null,"features":null,"date":null},{"id":"242","store_number":"240","vendor_number":"610503","psp":"CHARLES RUSSELL","lat":"27.632985","lng":"-80.403075","address":"1255 US HWY 1 ","address2":null,"city":"VERO BEACH","state":"FL","postal":"32960","phone":"(772) 778-1984","web":null,"hours1":null,"hours2":null,"hours3":null,"featured":null,"features":null,"date":null},{"id":"243","store_number":"284","vendor_number":"610503","psp":"CHARLES RUSSELL","lat":"27.637214","lng":"-80.47939","address":"2040 58TH AVE","address2":null,"city":"VERO BEACH","state":"FL","postal":"32966","phone":"(772) 569-1204","web":null,"hours1":null,"hours2":null,"hours3":null,"featured":null,"features":null,"date":null},{"id":"244","store_number":"385","vendor_number":"610503","psp":"CHARLES RUSSELL","lat":"27.588486","lng":"-80.392251","address":"810 US HWY 1","address2":null,"city":"VERO BEACH","state":"FL","postal":"32962","phone":"(772) 778-0600","web":null,"hours1":null,"hours2":null,"hours3":null,"featured":null,"features":null,"date":null},{"id":"245","store_number":"1150","vendor_number":"610503","psp":"CHARLES RUSSELL","lat":"27.632985","lng":"-80.403075","address":"415 21ST ST","address2":null,"city":"VERO BEACH","state":"FL","postal":"32960","phone":"(772) 562-0391","web":null,"hours1":null,"hours2":null,"hours3":null,"featured":null,"features":null,"date":null},{"id":"246","store_number":"1374","vendor_number":"610503","psp":"CHARLES RUSSELL","lat":"27.697223","lng":"-80.441617","address":"5230 US HWY 1","address2":null,"city":"VERO BEACH","state":"FL","postal":"32967","phone":"(772) 778-3513","web":null,"hours1":null,"hours2":null,"hours3":null,"featured":null,"features":null,"date":null},{"id":"247","store_number":"287","vendor_number":"610503","psp":"CHARLES RUSSELL","lat":"27.790082","lng":"-80.478432","address":"13434 US HWY 1","address2":null,"city":"SEBASTIAN","state":"FL","postal":"32958","phone":"(772) 589-5110","web":null,"hours1":null,"hours2":null,"hours3":null,"featured":null,"features":null,"date":null},{"id":"248","store_number":"772","vendor_number":"610503","psp":"CHARLES RUSSELL","lat":"27.790082","lng":"-80.478432","address":"9621 N US HWY","address2":null,"city":"SEBASTIAN","state":"FL","postal":"32958","phone":"(772) 581-5755","web":null,"hours1":null,"hours2":null,"hours3":null,"featured":null,"features":null,"date":null},{"id":"249","store_number":"1035","vendor_number":"610503","psp":"CHARLES RUSSELL","lat":"27.790082","lng":"-80.478432","address":"1451 SEBASTIAN BLVD STE 200","address2":null,"city":"SEBASTIAN","state":"FL","postal":"32958","phone":"(772) 581-5710","web":null,"hours1":null,"hours2":null,"hours3":null,"featured":null,"features":null,"date":null},{"id":"250","store_number":"241","vendor_number":"610503","psp":"CHARLES RUSSELL","lat":"27.139817","lng":"-80.212937","address":"5893 SE FEDERAL HWY","address2":null,"city":"STUART","state":"FL","postal":"34997","phone":"(772) 287-9355","web":null,"hours1":null,"hours2":null,"hours3":null,"featured":null,"features":null,"date":null},{"id":"251","store_number":"337","vendor_number":"610503","psp":"CHARLESS RUSSELL","lat":"27.139817","lng":"-80.212937","address":"3304 SE FEDERAL HWY","address2":null,"city":"STUART","state":"FL","postal":"34997","phone":"(772) 282-1189","web":null,"hours1":null,"hours2":null,"hours3":null,"featured":null,"features":null,"date":null},{"id":"252","store_number":"1237","vendor_number":"610503","psp":"CHARLES RUSSELL","lat":"27.196834","lng":"-80.253786","address":"1501 NW FEDERAL HWY","address2":null,"city":"STUART","state":"FL","postal":"34994","phone":"(772) 692-5025","web":null,"hours1":null,"hours2":null,"hours3":null,"featured":null,"features":null,"date":null},{"id":"253","store_number":"682","vendor_number":"610503","psp":"CHARLES RUSSELL","lat":"27.235568","lng":"-80.227656","address":"4231 NW FEDERAL HWY","address2":null,"city":"JENSEN BEACH","state":"FL","postal":"34957","phone":"(772) 692-7090","web":null,"hours1":null,"hours2":null,"hours3":null,"featured":null,"features":null,"date":null},{"id":"254","store_number":"1350","vendor_number":"610503","psp":"CHARLES RUSSELL","lat":"27.235568","lng":"-80.227656","address":"1780 NE JENSEN BEACH BLVD","address2":null,"city":"JENSEN BEACH","state":"FL","postal":"34957","phone":"(772) 225-3704","web":null,"hours1":null,"hours2":null,"hours3":null,"featured":null,"features":null,"date":null},{"id":"255","store_number":"577","vendor_number":"610503","psp":"CHARLES RUSSELL","lat":"27.165646","lng":"-80.291646","address":"2750 SW MARTIN DOWNS BLVD","address2":null,"city":"PALM CITY","state":"FL","postal":"34990","phone":"(772) 781-3012","web":null,"hours1":null,"hours2":null,"hours3":null,"featured":null,"features":null,"date":null},{"id":"256","store_number":"1014","vendor_number":"610503","psp":"CHARLES RUSSELL","lat":"27.165646","lng":"-80.291646","address":"1395 SW MARTIN HWY","address2":null,"city":"PALM CITY","state":"FL","postal":"34990","phone":"(772) 232-4056","web":null,"hours1":null,"hours2":null,"hours3":null,"featured":null,"features":null,"date":null},{"id":"257","store_number":"567","vendor_number":"610503","psp":"CHARLES RUSSELL","lat":"27.390764","lng":"-80.324633","address":"2517 S FEDERAL HWY","address2":null,"city":"FORT PIERCE","state":"FL","postal":"34982","phone":"(772) 595-1700","web":null,"hours1":null,"hours2":null,"hours3":null,"featured":null,"features":null,"date":null},{"id":"258","store_number":"571","vendor_number":"610503","psp":"CHARLES RUSSELL","lat":"27.081306","lng":"-80.150851","address":"11750 SE FEDERAL HWY","address2":null,"city":"HOBE SOUND","state":"FL","postal":"33455","phone":"(772) 545-5660","web":null,"hours1":null,"hours2":null,"hours3":null,"featured":null,"features":null,"date":null},{"id":"259","store_number":"433","vendor_number":"610505","psp":"DANIEL WATERS","lat":"","lng":"","address":"14444 BEACH BLVD STE 6","address2":null,"city":"JACKSONVILLE","state":"FL","postal":"33250","phone":"(904) 223-0286","web":null,"hours1":null,"hours2":null,"hours3":null,"featured":null,"features":null,"date":null},{"id":"260","store_number":"1066","vendor_number":"610505","psp":"DANIEL WATERS","lat":"30.192703","lng":"-81.605042","address":"10500 SAN JOSE BLVD STE 36","address2":null,"city":"JACKSONVILLE","state":"FL","postal":"32257","phone":"(904) 288-6660","web":null,"hours1":null,"hours2":null,"hours3":null,"featured":null,"features":null,"date":null},{"id":"261","store_number":"1176","vendor_number":"610505","psp":"DANIEL WATERS","lat":"30.240678","lng":"-81.616956","address":"2875 UNIVERSITY BLVD W","address2":null,"city":"JACKSONVILLE","state":"FL","postal":"32217","phone":"(904) 419-4807","web":null,"hours1":null,"hours2":null,"hours3":null,"featured":null,"features":null,"date":null},{"id":"262","store_number":"1177","vendor_number":"610505","psp":"DANIEL WATERS","lat":"30.370439","lng":"-81.586394","address":"7117 MERRILL RD","address2":null,"city":"JACKSONVILLE","state":"FL","postal":"32277","phone":"(904) 744-7983","web":null,"hours1":null,"hours2":null,"hours3":null,"featured":null,"features":null,"date":null},{"id":"263","store_number":"1468","vendor_number":"610505","psp":"DANIEL WATERS","lat":"30.350968","lng":"-81.506092","address":"2771 MONUMENT RD STE 19","address2":null,"city":"JACKSONVILLE","state":"FL","postal":"32225","phone":"(904) 564-2448","web":null,"hours1":null,"hours2":null,"hours3":null,"featured":null,"features":null,"date":null},{"id":"264","store_number":"552","vendor_number":"610505","psp":"DANIEL WATERS","lat":"30.280143","lng":"-81.416506","address":"670 MARSH LANDING PKWY","address2":null,"city":"JACKSONVILLE BEACH","state":"FL","postal":"32250","phone":"(904) 273-7600","web":null,"hours1":null,"hours2":null,"hours3":null,"featured":null,"features":null,"date":null},{"id":"265","store_number":"1239","vendor_number":"610505","psp":"DANIEL WATERS","lat":"29.947511","lng":"-81.526379","address":"84 TUSCAN WAY","address2":null,"city":"SAINT AUGUSTINE","state":"FL","postal":"32092","phone":"(904) 940-2889","web":null,"hours1":null,"hours2":null,"hours3":null,"featured":null,"features":null,"date":null},{"id":"266","store_number":"1530","vendor_number":"610505","psp":"DANIEL WATERS","lat":"29.828514","lng":"-81.323734","address":"4255 US 1 S","address2":null,"city":"SAINT AUGUSTINE","state":"FL","postal":"32086","phone":"(904) 797-1111","web":null,"hours1":null,"hours2":null,"hours3":null,"featured":null,"features":null,"date":null},{"id":"267","store_number":"322","vendor_number":"610505","psp":"DANIEL WATERS","lat":"30.6696818","lng":"-81.4625919","address":"1421 SADLER RD","address2":null,"city":"FERNANDINA BEACH","state":"FL","postal":"32034","phone":"(904) 277-4911","web":null,"hours1":null,"hours2":null,"hours3":null,"featured":null,"features":null,"date":null},{"id":"268","store_number":"1115","vendor_number":"610505","psp":"DANIEL WATERS","lat":"30.138233","lng":"-81.774199","address":"950 BLANDING BLVD","address2":null,"city":"ORANGE PARK","state":"FL","postal":"32065","phone":"(904) 276-6029","web":null,"hours1":null,"hours2":null,"hours3":null,"featured":null,"features":null,"date":null},{"id":"269","store_number":"1243","vendor_number":"610505","psp":"DANIEL WATERS","lat":"30.120375248264","lng":"-81.412811826302","address":"120 MARKETSIDE AVE","address2":null,"city":"PONTE VEDRA","state":"FL","postal":"32081","phone":"(904) 825-0263","web":null,"hours1":null,"hours2":null,"hours3":null,"featured":null,"features":null,"date":null},{"id":"270","store_number":"1367","vendor_number":"610505","psp":"DANIEL WATERS","lat":"30.31548","lng":"-81.405123","address":"630 ATLANTIC BLVD","address2":null,"city":"NEPTUNE BEACH","state":"FL","postal":"32266","phone":"(904) 241-0944","web":null,"hours1":null,"hours2":null,"hours3":null,"featured":null,"features":null,"date":null},{"id":"271","store_number":"410","vendor_number":"610503","psp":"DANIEL CRAINE","lat":"26.152886616776","lng":"-81.741664880168","address":"7101 RADIO RD","address2":null,"city":"NAPLES","state":"FL","postal":"34104","phone":"(239) 455-3001","web":null,"hours1":null,"hours2":null,"hours3":null,"featured":null,"features":null,"date":null},{"id":"272","store_number":"453","vendor_number":"610503","psp":"DANIEL CRAINE","lat":"26.266525860506","lng":"-81.714601782713","address":"5991 PINE RIDGE RD","address2":null,"city":"NAPLES","state":"FL","postal":"34119","phone":"(239) 352-2200","web":null,"hours1":null,"hours2":null,"hours3":null,"featured":null,"features":null,"date":null},{"id":"273","store_number":"488","vendor_number":"610503","psp":"DANIEL CRAINE","lat":"26.253416","lng":"-81.764364","address":"231O PINE RIDGE RD","address2":null,"city":"NAPLES","state":"FL","postal":"34109","phone":"(239) 435-0387","web":null,"hours1":null,"hours2":null,"hours3":null,"featured":null,"features":null,"date":null},{"id":"274","store_number":"516","vendor_number":"610503","psp":"DANIEL CRAINE","lat":"26.042638","lng":"-81.718172","address":"12663 TAMIAMI TRL E","address2":null,"city":"NAPLES","state":"FL","postal":"34113","phone":"(239) 775-7383","web":null,"hours1":null,"hours2":null,"hours3":null,"featured":null,"features":null,"date":null},{"id":"275","store_number":"781","vendor_number":"610503","psp":"DANIEL CRAINE","lat":"26.266525860506","lng":"-81.714601782713","address":"15265 COLLIER BLVD","address2":null,"city":"NAPLES","state":"FL","postal":"34119","phone":"(239) 348-2931","web":null,"hours1":null,"hours2":null,"hours3":null,"featured":null,"features":null,"date":null},{"id":"276","store_number":"1434","vendor_number":"610503","psp":"DANIEL CRAINE","lat":"26.133968","lng":"-81.795309","address":"1981 TAMIAMI TRL N","address2":null,"city":"NAPLES","state":"FL","postal":"34102","phone":"(239) 262-0125","web":null,"hours1":null,"hours2":null,"hours3":null,"featured":null,"features":null,"date":null},{"id":"277","store_number":"426","vendor_number":"610503","psp":"DANIEL CRAINE","lat":"26.55667435177","lng":"-81.90335700108","address":"4600 SUMMERLIN RD","address2":null,"city":"FORT MYERS","state":"FL","postal":"33919","phone":"(239) 939-1771","web":null,"hours1":null,"hours2":null,"hours3":null,"featured":null,"features":null,"date":null},{"id":"278","store_number":"578","vendor_number":"610503","psp":"DANIEL CRAINE","lat":"26.115841817952","lng":"-80.368064169537","address":"11600 GLADIOLUS DR","address2":null,"city":"FORT MYERS","state":"FL","postal":"33326","phone":"(239) 437-3674","web":null,"hours1":null,"hours2":null,"hours3":null,"featured":null,"features":null,"date":null},{"id":"279","store_number":"864","vendor_number":"610503","psp":"DANIEL CRAINE","lat":"26.49722","lng":"-81.824554","address":"13650 FIDDLESTICKS BLVD","address2":null,"city":"FORT MYERS","state":"FL","postal":"33912","phone":"(239) 768-1710","web":null,"hours1":null,"hours2":null,"hours3":null,"featured":null,"features":null,"date":null},{"id":"280","store_number":"1280","vendor_number":"610503","psp":"DANIEL CRAINE","lat":"26.582396060656","lng":"-81.832024990656","address":"7950 DR STE 200","address2":null,"city":"FORT MYERS","state":"FL","postal":"33966","phone":"(239) 274-1226","web":null,"hours1":null,"hours2":null,"hours3":null,"featured":null,"features":null,"date":null},{"id":"281","store_number":"452","vendor_number":"610503","psp":"DANIEL CRAINE","lat":"26.628091","lng":"-82.018158","address":"100 HANCOCK BRIDGE PKWY W","address2":null,"city":"CAPE CORAL","state":"FL","postal":"33991","phone":"(239) 458-8900","web":null,"hours1":null,"hours2":null,"hours3":null,"featured":null,"features":null,"date":null},{"id":"282","store_number":"852","vendor_number":"610503","psp":"DANIEL CRAINE","lat":"26.555656416841","lng":"-82.020557083141","address":"2420 SANTA BARBARA BLVD","address2":null,"city":"CAPE CORAL","state":"FL","postal":"33914","phone":"(239) 574-6395","web":null,"hours1":null,"hours2":null,"hours3":null,"featured":null,"features":null,"date":null},{"id":"283","store_number":"1328","vendor_number":"610503","psp":"DANIEL CRAINE","lat":"26.693884801289","lng":"-81.9452398999","address":"1735 NE PINE ISLAND RD","address2":null,"city":"CAPE CORAL","state":"FL","postal":"33909","phone":"(239) 573-0818","web":null,"hours1":null,"hours2":null,"hours3":null,"featured":null,"features":null,"date":null},{"id":"284","store_number":"843","vendor_number":"610503","psp":"DANIEL CRAINE","lat":"26.377129","lng":"-81.733377","address":"12900 TRADE WAY FOUR","address2":null,"city":"BONITA SPRINGS","state":"FL","postal":"34135","phone":"(239) 992-2159","web":null,"hours1":null,"hours2":null,"hours3":null,"featured":null,"features":null,"date":null},{"id":"285","store_number":"1449","vendor_number":"610503","psp":"DANIEL CRAINE","lat":"26.362566","lng":"-81.818279","address":"3304 BONITA BEACH RD","address2":null,"city":"BONITA SPRINGS","state":"FL","postal":"34134","phone":"(239) 495-1600","web":null,"hours1":null,"hours2":null,"hours3":null,"featured":null,"features":null,"date":null},{"id":"286","store_number":"847","vendor_number":"610503","psp":"DANIEL CRAINE","lat":"26.435052","lng":"-81.810244","address":"20311 GRANDE OAKS SHOPPES BLVD","address2":null,"city":"ESTERO","state":"FL","postal":"33928","phone":"(239) 495-8031","web":null,"hours1":null,"hours2":null,"hours3":null,"featured":null,"features":null,"date":null},{"id":"287","store_number":"427","vendor_number":"610505","psp":"RONALD HOUGH","lat":"28.394861","lng":"-81.417882","address":"3972 TOWN CNTR BLVD","address2":null,"city":"ORLANDO","state":"FL","postal":"32837","phone":"(407) 850-4355","web":null,"hours1":null,"hours2":null,"hours3":null,"featured":null,"features":null,"date":null},{"id":"288","store_number":"436","vendor_number":"610505","psp":"DREW CLIFTON","lat":"28.513958","lng":"-81.356968","address":"2873 S ORANGE AVE","address2":null,"city":"ORLANDO","state":"FL","postal":"32806","phone":"(407) 872-0395","web":null,"hours1":null,"hours2":null,"hours3":null,"featured":null,"features":null,"date":null},{"id":"289","store_number":"812","vendor_number":"610505","psp":"DREW CLIFTON","lat":"28.395724","lng":"-81.466602","address":"8145 VINELAND AVE","address2":null,"city":"ORLANDO","state":"FL","postal":"32821","phone":"(407) 238-9924","web":null,"hours1":null,"hours2":null,"hours3":null,"featured":null,"features":null,"date":null},{"id":"290","store_number":"886","vendor_number":"610505","psp":"GEORGE DIBONA","lat":"28.377428","lng":"-81.188807","address":"10615 NARCOOSSEE RD","address2":null,"city":"ORLANDO","state":"FL","postal":"32832","phone":"(407) 277-1089","web":null,"hours1":null,"hours2":null,"hours3":null,"featured":null,"features":null,"date":null},{"id":"291","store_number":"1338","vendor_number":"601505","psp":"GEORGE DIBONA","lat":"28.546865","lng":"-81.257081","address":"10250 CURRY FORD RD","address2":null,"city":"ORLANDO","state":"FL","postal":"32825","phone":"(407) 207-6107","web":null,"hours1":null,"hours2":null,"hours3":null,"featured":null,"features":null,"date":null},{"id":"292","store_number":"1430","vendor_number":"601505","psp":"GEORGE DIBONA","lat":"28.377428","lng":"-81.188807","address":"13900 NARCOOSSEE RD","address2":null,"city":"ORLANDO","state":"FL","postal":"32832","phone":"(407) 240-1402","web":null,"hours1":null,"hours2":null,"hours3":null,"featured":null,"features":null,"date":null},{"id":"293","store_number":"1439","vendor_number":"601505","psp":"DREW CLIFTON","lat":"28.452157","lng":"-81.46784","address":"7524 DR PHILLIPS BLVD","address2":null,"city":"ORLANDO","state":"FL","postal":"32819","phone":"(407) 226-9882","web":null,"hours1":null,"hours2":null,"hours3":null,"featured":null,"features":null,"date":null},{"id":"294","store_number":"329","vendor_number":"610505","psp":"GEORGE DIBONA","lat":"28.651256","lng":"-81.206593","address":"81 ALAFAYA WOODS BLVD","address2":null,"city":"OVIEDO","state":"FL","postal":"32765","phone":"(407) 366-8119","web":null,"hours1":null,"hours2":null,"hours3":null,"featured":null,"features":null,"date":null},{"id":"295","store_number":"458","vendor_number":"610505","psp":"GEORGE DIBONA","lat":"28.651256","lng":"-81.206593","address":"4250 ALAFAYA TRL STE 148","address2":null,"city":"OVIEDO","state":"FL","postal":"32765","phone":"(407) 366-9430","web":null,"hours1":null,"hours2":null,"hours3":null,"featured":null,"features":null,"date":null},{"id":"296","store_number":"493","vendor_number":"610505","psp":"GEORGE DIBONA","lat":"28.651256","lng":"-81.206593","address":"2100 WINTER SPRINGS BLVD","address2":null,"city":"OVIEDO","state":"FL","postal":"32765","phone":"(407) 366-9740","web":null,"hours1":null,"hours2":null,"hours3":null,"featured":null,"features":null,"date":null},{"id":"297","store_number":"227","vendor_number":"610505","psp":"DREW CLIFTON","lat":"28.635425","lng":"-81.488843","address":"540 S HUNT CLUB BLVD","address2":null,"city":"APOPKA","state":"FL","postal":"32703","phone":"(407) 862-5255","web":null,"hours1":null,"hours2":null,"hours3":null,"featured":null,"features":null,"date":null},{"id":"298","store_number":"235","vendor_number":"610505","psp":"RONALD HOUGH","lat":"28.247992","lng":"-81.287626","address":"4401 13TH ST","address2":null,"city":"SAINT CLOUD","state":"FL","postal":"34769","phone":"(407) 498-3070","web":null,"hours1":null,"hours2":null,"hours3":null,"featured":null,"features":null,"date":null},{"id":"299","store_number":"301","vendor_number":"610505","psp":"DREW CLIFTON","lat":"28.662467551653","lng":"-81.411714300416","address":"951 N STATE RD 434","address2":null,"city":"ALTAMONTE SPRINGS","state":"FL","postal":"32714","phone":"(407) 682-4100","web":null,"hours1":null,"hours2":null,"hours3":null,"featured":null,"features":null,"date":null},{"id":"300","store_number":"351","vendor_number":"610505","psp":"RONALD HOUGH","lat":"28.26796","lng":"-81.467478","address":"2915 VINELAND RD","address2":null,"city":"KISSIMMEE","state":"FL","postal":"34746","phone":"(407) 396-7525","web":null,"hours1":null,"hours2":null,"hours3":null,"featured":null,"features":null,"date":null},{"id":"301","store_number":"1304","vendor_number":"610505","psp":"DREW CLIFTON","lat":"28.7577","lng":"-81.350772","address":"870 VILLAGE OAK LANE","address2":null,"city":"LAKE MARY","state":"FL","postal":"32746","phone":"(407) 804-1950","web":null,"hours1":null,"hours2":null,"hours3":null,"featured":null,"features":null,"date":null},{"id":"302","store_number":"1488","vendor_number":"605105","psp":"GEORGE DIBONA","lat":"28.597824","lng":"-81.353436","address":"440 N ORLANDO AVE","address2":null,"city":"WINTER PARK","state":"FL","postal":"32789","phone":"(407) 644-1204","web":null,"hours1":null,"hours2":null,"hours3":null,"featured":null,"features":null,"date":null},{"id":"303","store_number":"4","vendor_number":"610505","psp":"GEORGE WOODS VI","lat":"28.934084","lng":"-81.959943","address":"8780 SE 165TH MULBERRY LN","address2":null,"city":"THE VILLAGES","state":"FL","postal":"32162","phone":"(352) 751-0301","web":null,"hours1":null,"hours2":null,"hours3":null,"featured":null,"features":null,"date":null},{"id":"304","store_number":"1080","vendor_number":"610505","psp":"GEORGE WOODS VI","lat":"28.934084","lng":"-81.959943","address":"3475 WEDGEWOOD LN","address2":null,"city":"THE VILLAGES","state":"FL","postal":"32162","phone":"(352) 221-8135","web":null,"hours1":null,"hours2":null,"hours3":null,"featured":null,"features":null,"date":null},{"id":"305","store_number":"1155","vendor_number":"610505","psp":"GEORGE WOODS VI","lat":"28.934084","lng":"-81.959943","address":"327 COLONY BLVD","address2":null,"city":"THE VILLAGES","state":"FL","postal":"32162","phone":"(352) 391-1802","web":null,"hours1":null,"hours2":null,"hours3":null,"featured":null,"features":null,"date":null},